province,fac_name,type,org_owner,lat,long,source,prov_abb
Eastern Cape,Aberdeen Hospital,District Hospital,MoH,-32.4862,24.06093,GPS,EC
Eastern Cape,Aberdeen Satellite Clinic,Satellite Clinic,MoH,-32.475,24.052,GPS,EC
Eastern Cape,AD Keet Clinic,Clinic,MoH,-34.0602,24.91831,GPS,EC
Eastern Cape,Addo Clinic,Clinic,MoH,-33.5422,25.69077,GPS,EC
Eastern Cape,Addo Enon Satellite Clinic,Satellite Clinic,MoH,-33.3946,25.54625,GPS,EC
Eastern Cape,Adelaide Clinic,Clinic,MoH,-32.7071,26.294605,GPS,EC
Eastern Cape,Adelaide Gateway Clinic,Clinic,MoH,-32.6999,26.29404,GPS,EC
Eastern Cape,Adelaide Hospital,District Hospital,MoH,-32.7009,26.29427,GPS,EC
Eastern Cape,Aeroville Clinic,Clinic,MoH,-32.7496,25.6035,GPS,EC
Eastern Cape,Afsondering Clinic,Clinic,MoH,-30.1798,28.94812,GPS,EC
Eastern Cape,Agnes Rest Clinic,Clinic,MoH,-31.6974,27.031329,GPS,EC
Eastern Cape,Albany Road Clinic,Clinic,MoH,-33.1803,26.32115,GPS,EC
Eastern Cape,Alexandria Clinic,Clinic,MoH,-33.6512,26.41422,GPS,EC
Eastern Cape,Algoa Park Clinic,Clinic,MoH,-33.9011,25.56448,GPS,EC
Eastern Cape,Alicedale Clinic,Clinic,MoH,-33.3173,26.0906,GPS,EC
Eastern Cape,Aliwal North Block H Clinic,Clinic,MoH,-30.6883,26.68674,GPS,EC
Eastern Cape,Aliwal North Hospital,District Hospital,MoH,-30.6969,26.70719,GPS,EC
Eastern Cape,All Saints Gateway Clinic,Clinic,MoH,-31.6619,28.0504,GPS,EC
Eastern Cape,All Saints Hospital,District Hospital,MoH,-31.6619,28.05041,GPS,EC
Eastern Cape,Alphendale Clinic,Clinic,MoH,-33.0135,27.84133,GPS,EC
Eastern Cape,Amabele Clinic,Clinic,MoH,-32.6633,27.52389,GPS,EC
Eastern Cape,Amadiba Clinic,Clinic,MoH,-31.0731,30.179245,GPS,EC
Eastern Cape,Amahleke Clinic,Clinic,MoH,-32.8337,27.22825,GPS,EC
Eastern Cape,Amandengane Clinic,Clinic,MoH,-31.0861,29.75053,GPS,EC
Eastern Cape,Amantshangase Clinic,Clinic,MoH,-30.8396,29.58773,GPS,EC
Eastern Cape,Amathole Basin Clinic,Clinic,MoH,-32.6958,26.993,GPS,EC
Eastern Cape,Amatola TB Clinic,Clinic,MoH,-32.89,27.39,GPS,EC
Eastern Cape,Andries Vosloo Hospital,District Hospital,MoH,-32.7218,25.59525,GPS,EC
Eastern Cape,Andrieskraal Clinic,Clinic,MoH,-33.7465,24.64038,GPS,EC
Eastern Cape,Anglo African Street Clinic,Clinic,MoH,-33.31,26.52464,GPS,EC
Eastern Cape,Asherville Clinic,Clinic,MoH,-32.2703,24.55555,GPS,EC
Eastern Cape,Askeaton Clinic,Clinic,MoH,-31.6252,27.46074,GPS,EC
Eastern Cape,Aspiranza Clinic,Clinic,MoH,-33.0191,27.84991,GPS,EC
Eastern Cape,Assina Mandla Clinic,Clinic,MoH,-32.7504,26.7941,GPS,EC
Eastern Cape,Bacclesfarm Clinic,Clinic,MoH,-32.0399,26.45647,GPS,EC
Eastern Cape,Badi Clinic,Clinic,MoH,-32.287,28.66265,GPS,EC
Eastern Cape,Bala Clinic,Clinic,MoH,-30.9902,29.53691,GPS,EC
Eastern Cape,Baleni Clinic,Clinic,MoH,-31.1591,29.97147,GPS,EC
Eastern Cape,Balfour Clinic,Clinic,MoH,-32.5457,26.68213,GPS,EC
Eastern Cape,Bambisana Gateway Clinic,Clinic,MoH,-31.4508,29.4546,GPS,EC
Eastern Cape,Bambisana Hospital,District Hospital,MoH,-31.4501,29.45397,GPS,EC
Eastern Cape,Banzi Clinic,Clinic,MoH,-32.1263,27.51978,GPS,EC
Eastern Cape,Baroda Clinic,Clinic,MoH,-32.0021,25.51025,GPS,EC
Eastern Cape,Bathurst Clinic,Clinic,MoH,-33.493699,26.83122,GPS,EC
Eastern Cape,Baviaans Clinic,Clinic,MoH,-33.3246,24.34423,GPS,EC
Eastern Cape,Baziya CHC,Community Health Centre,MoH,-31.6151,28.38365,GPS,EC
Eastern Cape,Beacon Bay Clinic,Clinic,MoH,-32.9679,27.93835,GPS,EC
Eastern Cape,Beatrice Ngwentle Clinic,Clinic,MoH,-32.7175,25.59153,GPS,EC
Eastern Cape,Bedford Clinic,Clinic,MoH,-32.6793,26.088811,GPS,EC
Eastern Cape,Bedford Hospital,District Hospital,MoH,-32.6762,26.083139,GPS,EC
Eastern Cape,Beestekraal Clinic,Clinic,MoH,-31.5196,27.80971,GPS,EC
Eastern Cape,Bengu Clinic Emalahleni,Clinic,MoH,-31.7927,27.335408,GPS,EC
Eastern Cape,Bensonvale Clinic,Clinic,MoH,-30.5822,27.35663,GPS,EC
Eastern Cape,Bergsig Clinic,Clinic,MoH,-33.3873,25.44973,GPS,EC
Eastern Cape,Berlin Clinic,Clinic,MoH,-32.8839,27.577761,GPS,EC
Eastern Cape,Bethania Clinic,Clinic,MoH,-30.6228,28.33295,GPS,EC
Eastern Cape,Bezuidenhoutville Clinic,Clinic,MoH,-32.688,26.29813,GPS,EC
Eastern Cape,Bhele Clinic,Clinic,MoH,-33.2026,27.18268,GPS,EC
Eastern Cape,Bhisho Gateway Clinic,Clinic,MoH,-32.8277,27.4551,GPS,EC
Eastern Cape,Bhisho Hospital,District Hospital,MoH,-32.8277,27.45516,GPS,EC
Eastern Cape,Bhisho Parliament Clinic,Clinic,MoH,-32.8639,27.42898,GPS,EC
Eastern Cape,Bhongweni Clinic,Clinic,MoH,-32.7449,25.79826,GPS,EC
Eastern Cape,Bilatye Clinic,Clinic,MoH,-31.9464,27.365139,GPS,EC
Eastern Cape,Bityi Clinic,Clinic,MoH,-31.7942,28.523408,GPS,EC
Eastern Cape,BJ Vorster  Hospital Kareedouw,District Hospital,MoH,-33.9515,24.29786,GPS,EC
Eastern Cape,Bluegums Clinic,Clinic,MoH,-30.5475,27.232414,GPS,EC
Eastern Cape,Bodweni Clinic,Clinic,MoH,-31.185,29.55156,GPS,EC
Eastern Cape,Bokleni Clinic,Clinic,MoH,-31.5946,28.19492,GPS,EC
Eastern Cape,Bolotwa Clinic Confimvaba,Clinic,MoH,-31.5919,27.20089,GPS,EC
Eastern Cape,Bolotwa Clinic Idutywa,Clinic,MoH,-31.917,28.29209,GPS,EC
Eastern Cape,Bomvana Clinic,Clinic,MoH,-32.1132,28.80161,GPS,EC
Eastern Cape,Bomvini Clinic,Clinic,MoH,-31.4018,29.472362,GPS,EC
Eastern Cape,Boomplaas Clinic,Clinic,MoH,-31.5129,27.17074,GPS,EC
Eastern Cape,Booysens Park Clinic,Clinic,MoH,-33.862,25.45872,GPS,EC
Eastern Cape,Braelyn Clinic,Clinic,MoH,-32.9999,27.8793,GPS,EC
Eastern Cape,Braelyn Extension Clinic,Clinic,MoH,-33.004,27.86104,GPS,EC
Eastern Cape,Breidbach Clinic,Clinic,MoH,-32.8881,27.44361,GPS,EC
Eastern Cape,Brister House Clinic,Clinic,MoH,-33.9575,25.61869,GPS,EC
Eastern Cape,Brug Straat Clinic Jansenville,Clinic,MoH,-32.9481,24.66555,GPS,EC
Eastern Cape,Buchele Clinic,Clinic,MoH,-31.4956,29.621748,GPS,EC
Eastern Cape,Bulembu Clinic,Clinic,MoH,-32.8734,27.26767,GPS,EC
Eastern Cape,Buntingville Clinic,Clinic,MoH,-31.6338,28.86661,GPS,EC
Eastern Cape,Burgersdorp Clinic,Clinic,MoH,-30.9948,26.3321,GPS,EC
Eastern Cape,Burgersdorp Hospital,District Hospital,MoH,-30.9935,26.31398,GPS,EC
Eastern Cape,Burnshill Clinic,Clinic,MoH,-32.769,27.0551,GPS,EC
Eastern Cape,Butterworth Gateway Clinic,Clinic,MoH,-32.332299,28.13877,GPS,EC
Eastern Cape,Butterworth Hospital,District Hospital,MoH,-32.3323,28.13877,GPS,EC
Eastern Cape,Caba Clinic,Clinic,MoH,-30.9363,28.71145,GPS,EC
Eastern Cape,Caguba Clinic,Clinic,MoH,-31.6237,29.4494,GPS,EC
Eastern Cape,Cala Hospital,District Hospital,MoH,-31.5223,27.68274,GPS,EC
Eastern Cape,Cambridge Clinic,Clinic,MoH,-32.9779,27.88947,GPS,EC
Eastern Cape,Cancele Clinic,Clinic,MoH,-30.8479,28.78897,GPS,EC
Eastern Cape,Canzibe Gateway Clinic,Clinic,MoH,-31.8088,29.06584,GPS,EC
Eastern Cape,Canzibe Hospital,District Hospital,MoH,-31.8088,29.06588,GPS,EC
Eastern Cape,Cata Clinic,Clinic,MoH,-32.5948,27.12479,GPS,EC
Eastern Cape,Cathcart Clinic,Clinic,MoH,-32.2983,27.14451,GPS,EC
Eastern Cape,Cathcart Hospital,District Hospital,MoH,-32.2902,27.13691,GPS,EC
Eastern Cape,CC Lloyd Clinic,Clinic,MoH,-32.775,26.63361,GPS,EC
Eastern Cape,Cecilia Makiwane Hospital,Regional Hospital,MoH,-32.9278,27.74422,GPS,EC
Eastern Cape,Central CHC Sandford,Community Health Centre,MoH,-33.958,25.60172,GPS,EC
Eastern Cape,Central Clinic East London,Clinic,MoH,-33.0168,27.90585,GPS,EC
Eastern Cape,Central Clinic King William's Town,Clinic,MoH,-32.8794,27.39542,GPS,EC
Eastern Cape,Central Clinic Port Elizabeth,Clinic,MoH,-33.9643,25.6133,GPS,EC
Eastern Cape,Chatty Clinic,Clinic,MoH,-33.8732,25.49539,GPS,EC
Eastern Cape,Chris Hani Clinic,Clinic,MoH,-32.9546,27.92509,GPS,EC
Eastern Cape,Cimezile Clinic,Clinic,MoH,-32.274,26.62354,GPS,EC
Eastern Cape,Civic Centre Clinic Mthatha,Clinic,MoH,-31.5826,28.78992,GPS,EC
Eastern Cape,Clarkebury Clinic,Clinic,MoH,-31.7919,28.28793,GPS,EC
Eastern Cape,Clarkson Clinic,Clinic,MoH,-34.0104,24.29446,GPS,EC
Eastern Cape,Cloete Joubert Hospital  Barkly East,District Hospital,MoH,-30.9676,27.58507,GPS,EC
Eastern Cape,Coega Satellite Clinic,Satellite Clinic,MoH,-33.7567,25.65792,GPS,EC
Eastern Cape,Cofimvaba Hospital,District Hospital,MoH,-32.0119,27.58348,GPS,EC
Eastern Cape,Colchester Health Post,Health Post,MoH,-33.683,25.8,GPS,EC
Eastern Cape,Coldstream Satellite Clinic,Satellite Clinic,MoH,-33.9618,23.70077,GPS,EC
Eastern Cape,Collondale Satellite Clinic,Satellite Clinic,MoH,-33.0397,27.8188,GPS,EC
Eastern Cape,Cradock Gateway Clinic,Clinic,MoH,-32.1689,25.616194,GPS,EC
Eastern Cape,Cradock Hospital,District Hospital,MoH,-32.1673,25.62243,GPS,EC
Eastern Cape,Cumakala 1 Clinic,Clinic,MoH,-32.5571,27.44754,GPS,EC
Eastern Cape,Cumakala 2 Clinic,Clinic,MoH,-32.5629,27.44868,GPS,EC
Eastern Cape,Cumakala Satellite Clinic,Satellite Clinic,MoH,-31.6481,27.224568,GPS,EC
Eastern Cape,Cwecweni Clinic,Clinic,MoH,-31.9367,28.05575,GPS,EC
Eastern Cape,Cwele Clinic,Clinic,MoH,-31.672,29.21289,GPS,EC
Eastern Cape,Cwili Clinic,Clinic,MoH,-32.677,28.36332,GPS,EC
Eastern Cape,Daliwe Clinic,Clinic,MoH,-32.3019,27.15127,GPS,EC
Eastern Cape,Daliwonga Clinic,Clinic,MoH,-31.1052,29.9072,GPS,EC
Eastern Cape,Debe Nek Clinic,Clinic,MoH,-32.8458,27.13793,GPS,EC
Eastern Cape,Didimana Clinic,Clinic,MoH,-32.1758,26.8186,GPS,EC
Eastern Cape,Dimbaza CHC,Community Health Centre,MoH,-32.8352,27.21388,GPS,EC
Eastern Cape,Donnington Clinic,Clinic,MoH,-32.7236,27.42576,GPS,EC
Eastern Cape,Dora Nginza Hospital,Regional Hospital,MoH,-33.8825,25.563114,GPS,EC
Eastern Cape,Dordrecht Clinic,Clinic,MoH,-31.3748,27.04622,GPS,EC
Eastern Cape,Dordrecht Hospital,District Hospital,MoH,-31.3913,27.045615,GPS,EC
Eastern Cape,Double Falls Clinic,Clinic,MoH,-31.3739,29.12298,GPS,EC
Eastern Cape,Dr CL Bikitsha Clinic,Clinic,MoH,-32.2782,28.10553,GPS,EC
Eastern Cape,Dr Malizo Mpehle Memorial Hospital,District Hospital,MoH,-31.3165,28.778056,GPS,EC
Eastern Cape,Drake Road Clinic,Clinic,MoH,-32.9857,27.9292,GPS,EC
Eastern Cape,Du Preez Street Clinic,Clinic,MoH,-33.8033,25.46274,GPS,EC
Eastern Cape,Duncan Village CHC,Community Health Centre,MoH,-33.0078,27.88599,GPS,EC
Eastern Cape,Dundee Clinic,Clinic,MoH,-30.7489,29.4183,GPS,EC
Eastern Cape,Dungu Clinic,Clinic,MoH,-30.9569,29.30276,GPS,EC
Eastern Cape,Edamini Clinic,Clinic,MoH,-33.8327,25.38563,GPS,EC
Eastern Cape,Efata Clinic,Clinic,MoH,-31.5697,28.7242,GPS,EC
Eastern Cape,Ekuphumleni Clinic,Clinic,MoH,-32.1781,26.781860000000002,GPS,EC
Eastern Cape,Ekuphumleni Satellite Clinic Nelson Mandela Bay,Satellite Clinic,MoH,-33.8545,25.29028,GPS,EC
Eastern Cape,Elliot Clinic,Clinic,MoH,-31.3333,27.84953,GPS,EC
Eastern Cape,Elliot Hospital,District Hospital,MoH,-31.3371,27.83797,GPS,EC
Eastern Cape,Elucwecwe Clinic,Clinic,MoH,-31.7338,27.8688,GPS,EC
Eastern Cape,Eluhewini Clinic,Clinic,MoH,-31.7058,28.12643,GPS,EC
Eastern Cape,Elukholweni Clinic,Clinic,MoH,-30.6329,28.84811,GPS,EC
Eastern Cape,Eluxolweni Clinic,Clinic,MoH,-31.6433,25.80519,GPS,EC
Eastern Cape,Empilisweni Clinic,Clinic,MoH,-31.1936,28.23954,GPS,EC
Eastern Cape,Empilisweni Hospital,District Hospital,MoH,-30.5332,27.35337,GPS,EC
Eastern Cape,Empilweni Gompo CHC,Community Health Centre,MoH,-33.0145,27.84894,GPS,EC
Eastern Cape,Engojini Clinic,Clinic,MoH,-32.2239,26.75392,GPS,EC
Eastern Cape,Esilindini Clinic,Clinic,MoH,-30.5439,27.33027,GPS,EC
Eastern Cape,Ethembeni Clinic,Clinic,MoH,-32.7628,27.43183,GPS,EC
Eastern Cape,Eureka Clinic,Clinic,MoH,-31.0103,26.31904,GPS,EC
Eastern Cape,Ezibeleni Clinic,Clinic,MoH,-31.9081,26.95643,GPS,EC
Eastern Cape,Ezingcuka Clinic,Clinic,MoH,-31.3005,28.658251,GPS,EC
Eastern Cape,Fezeka NU 3 Clinic,Clinic,MoH,-32.9319,27.75319,GPS,EC
Eastern Cape,Fish River Clinic,Clinic,MoH,-31.9119,25.41589,GPS,EC
Eastern Cape,Flagstaff Clinic,Clinic,MoH,-31.0803,29.4969,GPS,EC
Eastern Cape,Fort Beaufort Gateway Clinic,Clinic,MoH,-32.7816,26.6348,GPS,EC
Eastern Cape,Fort Beaufort Hospital,District Hospital,MoH,-32.7802,26.633571,GPS,EC
Eastern Cape,Fort Grey Clinic,Clinic,MoH,-33.037,27.80318,GPS,EC
Eastern Cape,Fort Malan Clinic,Clinic,MoH,-32.1513,28.52353,GPS,EC
Eastern Cape,Frankfort Clinic,Clinic,MoH,-32.7202,27.45267,GPS,EC
Eastern Cape,Fransbury Clinic,Clinic,MoH,-31.9642,27.07476,GPS,EC
Eastern Cape,Frere Gateway Clinic,Clinic,MoH,-32.9971,27.88982,GPS,EC
Eastern Cape,Frere Hospital,Provincial Tertiary Hospital,MoH,-32.9959,27.89156,GPS,EC
Eastern Cape,Frontier Hospital,Regional Hospital,MoH,-31.8892,26.871347,GPS,EC
Eastern Cape,Gardens Clinic,Clinic,MoH,-31.8949,26.8719,GPS,EC
Eastern Cape,Gcaleka Clinic,Clinic,MoH,-32.3379,28.31987,GPS,EC
Eastern Cape,Gelvandale Clinic,Clinic,MoH,-33.9165,25.54914,GPS,EC
Eastern Cape,Gilton Clinic,Clinic,MoH,-32.6618,26.94244,GPS,EC
Eastern Cape,Ginsberg Clinic,Clinic,MoH,-32.8921,27.38547,GPS,EC
Eastern Cape,Glen Grey Hospital,District Hospital,MoH,-31.719898999999998,27.19939,GPS,EC
Eastern Cape,Glenmore Clinic,Clinic,MoH,-33.1426,26.85843,GPS,EC
Eastern Cape,Gompo A Ndende Clinic,Clinic,MoH,-33.0072,27.87616,GPS,EC
Eastern Cape,Gompo B Jwayi Clinic,Clinic,MoH,-33.0167,27.8578,GPS,EC
Eastern Cape,Gompo C Jabavu Clinic,Clinic,MoH,-33.0116,27.86389,GPS,EC
Eastern Cape,Gonubie Clinic,Clinic,MoH,-32.9415,28.02194,GPS,EC
Eastern Cape,Good Hope Clinic,Clinic,MoH,-31.3274,29.26024,GPS,EC
Eastern Cape,Goso Forest Clinic,Clinic,MoH,-31.2331,29.37326,GPS,EC
Eastern Cape,Govan Mbeki Clinic,Clinic,MoH,-33.9481,25.60637,GPS,EC
Eastern Cape,Gqaga Clinic,Clinic,MoH,-31.5541,28.2108,GPS,EC
Eastern Cape,Gqaqhala Clinic,Clinic,MoH,-31.2828,28.387472,GPS,EC
Eastern Cape,Gqebera CHC,Community Health Centre,MoH,-33.9861,25.58886,GPS,EC
Eastern Cape,Gqogqora Clinic,Clinic,MoH,-31.9805,27.8884,GPS,EC
Eastern Cape,Gqubeni Clinic,Clinic,MoH,-31.5521,29.458749,GPS,EC
Eastern Cape,Gqunqe Clinic,Clinic,MoH,-32.4688,28.56265,GPS,EC
Eastern Cape,Graaff-Reinet Day Hospital,Community Health Centre,MoH,-32.2728,24.55239,GPS,EC
Eastern Cape,Gracey Clinic,Clinic,MoH,-32.5787,25.12838,GPS,EC
Eastern Cape,Grahamstown Clinic,Clinic,MoH,-33.311599,26.52639,GPS,EC
Eastern Cape,Grahamstown FP Clinic,Clinic,MoH,-33.3116,26.52639,GPS,EC
Eastern Cape,Grainvalley Clinic,Clinic,MoH,-32.2376,28.04856,GPS,EC
Eastern Cape,Greenfields Clinic,Clinic,MoH,-33.0352,27.86405,GPS,EC
Eastern Cape,Greenville Gateway Clinic,Clinic,MoH,-30.919,30.09949,GPS,EC
Eastern Cape,Greenville Hospital,District Hospital,MoH,-30.9316,30.108882,GPS,EC
Eastern Cape,Grey Gateway Clinic,Clinic,MoH,-32.8796,27.39581,GPS,EC
Eastern Cape,Grey Hospital,District Hospital,MoH,-32.8793,27.39579,GPS,EC
Eastern Cape,Guba Clinic,Clinic,MoH,-31.5354,27.2793,GPS,EC
Eastern Cape,Gubenxa Clinic,Clinic,MoH,-31.7174,27.82102,GPS,EC
Eastern Cape,Gura Clinic,Clinic,MoH,-31.0266,28.84105,GPS,EC
Eastern Cape,Gustav Lamour Clinic,Clinic,MoH,-33.8159,25.46387,GPS,EC
Eastern Cape,Gwabeni Clinic,Clinic,MoH,-33.0961,26.96185,GPS,EC
Eastern Cape,Gwadana Clinic,Clinic,MoH,-32.1429,28.28887,GPS,EC
Eastern Cape,Gwadu Clinic,Clinic,MoH,-32.2203,28.66774,GPS,EC
Eastern Cape,Gwatyu Clinic,Clinic,MoH,-32.0169,27.31561,GPS,EC
Eastern Cape,Gxulu Clinic,Clinic,MoH,-32.6452,27.10986,GPS,EC
Eastern Cape,Gxwederha Clinic,Clinic,MoH,-32.8416,26.78648,GPS,EC
Eastern Cape,Hackney Clinic,Clinic,MoH,-32.3144,26.64521,GPS,EC
Eastern Cape,Hamburg Clinic,Clinic,MoH,-33.2905,27.4733,GPS,EC
Eastern Cape,Haytor Clinic,Clinic,MoH,-32.2942,26.77051,GPS,EC
Eastern Cape,Healdtown Clinic,Clinic,MoH,-32.7315,26.70145,GPS,EC
Eastern Cape,Hebe-Hebe Clinic,Clinic,MoH,-32.236,27.83032,GPS,EC
Eastern Cape,Helenvale Clinic,Clinic,MoH,-33.9113,25.55133,GPS,EC
Eastern Cape,Herschel Clinic,Clinic,MoH,-30.6147,27.16438,GPS,EC
Eastern Cape,Hewu Hospital,District Hospital,MoH,-32.1727,26.80522,GPS,EC
Eastern Cape,High Street Clinic,Clinic,MoH,-32.1686,25.61616,GPS,EC
Eastern Cape,Highview Clinic,Clinic,MoH,-32.4351,27.94669,GPS,EC
Eastern Cape,Hillside Clinic Nkonkobe,Clinic,MoH,-32.7522,26.63978,GPS,EC
Eastern Cape,Hillside Clinic Senqu,Clinic,MoH,-30.561,27.564216,GPS,EC
Eastern Cape,Hilton Clinic,Clinic,MoH,-30.6971,26.70189,GPS,EC
Eastern Cape,Hlabatshane Clinic,Clinic,MoH,-31.7449,28.85659,GPS,EC
Eastern Cape,Hlala Uphilile Clinic,Clinic,MoH,-31.381,27.03673,GPS,EC
Eastern Cape,Hlamandana Clinic,Clinic,MoH,-30.8176,29.720125,GPS,EC
Eastern Cape,Hlangalane Clinic,Clinic,MoH,-30.9586,28.55037,GPS,EC
Eastern Cape,Hlankomo Clinic,Clinic,MoH,-30.9303,28.41911,GPS,EC
Eastern Cape,Hlomendlini Clinic,Clinic,MoH,-30.5858,27.2632,GPS,EC
Eastern Cape,Hobeni Clinic,Clinic,MoH,-32.175,28.87571,GPS,EC
Eastern Cape,Hofmeyer Clinic,Clinic,MoH,-31.6558,25.80396,GPS,EC
Eastern Cape,Holy Cross Gateway Clinic,Clinic,MoH,-31.0812,29.49535,GPS,EC
Eastern Cape,Holy Cross Hospital,District Hospital,MoH,-31.0812,29.49531,GPS,EC
Eastern Cape,Horseshoe Clinic,Clinic,MoH,-32.2607,24.53628,GPS,EC
Eastern Cape,Horton Clinic,Clinic,MoH,-33.1127,27.02162,GPS,EC
Eastern Cape,Hukuwa Clinic,Clinic,MoH,-32.1554,26.64698,GPS,EC
Eastern Cape,Humansdorp Clinic,Clinic,MoH,-34.0322,24.76844,GPS,EC
Eastern Cape,Humansdorp Hospital,District Hospital,MoH,-34.0302,24.78144,GPS,EC
Eastern Cape,Ibika Clinic,Clinic,MoH,-32.2835,28.22048,GPS,EC
Eastern Cape,Idutywa Nqabara Clinic,Clinic,MoH,-32.1009,28.45375,GPS,EC
Eastern Cape,Idutywa Village CHC,Community Health Centre,MoH,-32.097,28.29909,GPS,EC
Eastern Cape,Ikamvelihle Clinic,Clinic,MoH,-33.7932,25.61303,GPS,EC
Eastern Cape,Ilinge Clinic,Clinic,MoH,-31.9773,27.0402,GPS,EC
Eastern Cape,Ilita Clinic,Clinic,MoH,-32.8899,27.533847,GPS,EC
Eastern Cape,Imidange Clinic,Clinic,MoH,-32.7796,27.48696,GPS,EC
Eastern Cape,Imizamo Yetho Clinic,Clinic,MoH,-33.743,24.79744,GPS,EC
Eastern Cape,Imizizi Clinic,Clinic,MoH,-30.9089,29.97082,GPS,EC
Eastern Cape,Indwe Hospital,District Hospital,MoH,-31.4683,27.34042,GPS,EC
Eastern Cape,Isikelo Clinic,Clinic,MoH,-30.7866,29.76793,GPS,EC
Eastern Cape,Isikhoba Clinic,Clinic,MoH,-32.0098,27.58225,GPS,EC
Eastern Cape,Isilimela Gateway Clinic,Clinic,MoH,-31.7341,29.35891,GPS,EC
Eastern Cape,Isilimela Hospital,District Hospital,MoH,-31.7342,29.35888,GPS,EC
Eastern Cape,Isilindini Clinic,Clinic,MoH,-30.62,28.59078,GPS,EC
Eastern Cape,Isolomzi Clinic,Clinic,MoH,-33.8256,25.37535,GPS,EC
Eastern Cape,Jafta Clinic,Clinic,MoH,-32.7988,27.31083,GPS,EC
Eastern Cape,Jaji Clinic,Clinic,MoH,-33.3514,27.11316,GPS,EC
Eastern Cape,Jalamba Clinic,Clinic,MoH,-32.0169,28.73915,GPS,EC
Eastern Cape,Jama Clinic,Clinic,MoH,-33.3769,27.09369,GPS,EC
Eastern Cape,Jamestown Clinic,Clinic,MoH,-31.0868,26.844546,GPS,EC
Eastern Cape,Jamestown Hospital,District Hospital,MoH,-31.1236,26.8074,GPS,EC
Eastern Cape,Jingqi Clinic,Clinic,MoH,-32.3331,28.65779,GPS,EC
Eastern Cape,Joe Slovo Clinic,Clinic,MoH,-33.825,25.50272,GPS,EC
Eastern Cape,John Dube Clinic,Clinic,MoH,-32.9913,27.81635,GPS,EC
Eastern Cape,Joubertina CHC,Community Health Centre,MoH,-33.8263,23.86474,GPS,EC
Eastern Cape,Joza Clinic,Clinic,MoH,-33.2917,26.56033,GPS,EC
Eastern Cape,Kalankomo Clinic,Clinic,MoH,-30.9436,28.71078,GPS,EC
Eastern Cape,Kamastone Clinic,Clinic,MoH,-32.0695,26.64874,GPS,EC
Eastern Cape,Kambi Clinic,Clinic,MoH,-31.4929,28.66171,GPS,EC
Eastern Cape,Kanyayo  Clinic Bizana,Clinic,MoH,-31.0792,29.8004,GPS,EC
Eastern Cape,Kareedouw Clinic,Clinic,MoH,-33.9524,24.30601,GPS,EC
Eastern Cape,Kati-Kati Clinic,Clinic,MoH,-32.2882,27.15709,GPS,EC
Eastern Cape,Katkop Clinic,Clinic,MoH,-30.8977,28.54941,GPS,EC
Eastern Cape,KB Siswana Clinic,Clinic,MoH,-31.5592,26.54925,GPS,EC
Eastern Cape,Kenton-On-Sea Clinic,Clinic,MoH,-33.6762,26.66627,GPS,EC
Eastern Cape,Keti Clinic,Clinic,MoH,-32.0421,28.1156,GPS,EC
Eastern Cape,Khanya Clinic,Clinic,MoH,-33.8653,25.57497,GPS,EC
Eastern Cape,Khanyayo Clinic Holy Cross,Clinic,MoH,-31.1938,29.84544,GPS,EC
Eastern Cape,Khayamnandi Clinic,Clinic,MoH,-31.2817,25.812072,GPS,EC
Eastern Cape,Khuze Clinic,Clinic,MoH,-32.2127,27.62775,GPS,EC
Eastern Cape,Kirkwood Clinic,Clinic,MoH,-33.4006,25.44287,GPS,EC
Eastern Cape,Kleinbulhoek Clinic,Clinic,MoH,-32.1,26.56023,GPS,EC
Eastern Cape,Kohlo Clinic,Clinic,MoH,-31.5701,29.40748,GPS,EC
Eastern Cape,Kolomana Clinic,Clinic,MoH,-32.4255,26.78879,GPS,EC
Eastern Cape,Komga Clinic,Clinic,MoH,-32.5817,27.88549,GPS,EC
Eastern Cape,Komga Hospital,District Hospital,MoH,-32.576,27.89576,GPS,EC
Eastern Cape,Komga Rural Clinic,Clinic,MoH,-32.663,27.8925,GPS,EC
Eastern Cape,Komga Town Clinic,Clinic,MoH,-32.587,27.884852,GPS,EC
Eastern Cape,Korsten CHC,Community Health Centre,MoH,-33.925087,25.57074,GPS,EC
Eastern Cape,Kotana Clinic,Clinic,MoH,-32.1487,28.14648,GPS,EC
Eastern Cape,Kotyana Clinic,Clinic,MoH,-32.0437,28.99938,GPS,EC
Eastern Cape,Krakeel Clinic,Clinic,MoH,-33.8143,23.72769,GPS,EC
Eastern Cape,Kroonvale Clinic,Clinic,MoH,-32.2392,24.54027,GPS,EC
Eastern Cape,Kruisfontein Clinic,Clinic,MoH,-34.0224,24.74633,GPS,EC
Eastern Cape,Kruisrivier Clinic,Clinic,MoH,-33.7668,25.34838,GPS,EC
Eastern Cape,KTC clinic,Clinic,MoH,-31.2082,29.798988,GPS,EC
Eastern Cape,Ku Bengu Clinic,Clinic,MoH,-32.1434,27.61732,GPS,EC
Eastern Cape,Kubusi Clinic,Clinic,MoH,-32.5943,27.41285,GPS,EC
Eastern Cape,Kungisizwe Clinic,Clinic,MoH,-30.8285,28.60494,GPS,EC
Eastern Cape,Kuyasa CHC,Community Health Centre,MoH,-32.0071,27.58245,GPS,EC
Eastern Cape,Kwadwesi Clinic,Clinic,MoH,-33.8481,25.51882,GPS,EC
Eastern Cape,Kwamagxaki Clinic,Clinic,MoH,-33.8402,25.5335,GPS,EC
Eastern Cape,Kwa-Mkholoza Clinic,Clinic,MoH,-32.3206,28.59504,GPS,EC
Eastern Cape,Kwa-Nonqubela Clinic,Clinic,MoH,-33.6568,26.42042,GPS,EC
Eastern Cape,Kwanonzame New Clinic,Clinic,MoH,-31.5166,24.99938,GPS,EC
Eastern Cape,Kwanonzame Old Clinic,Clinic,MoH,-31.5167,25.0091,GPS,EC
Eastern Cape,Kwa-Nonzwakazi Clinic,Clinic,MoH,-33.3173,26.09077,GPS,EC
Eastern Cape,Kwazakhele CHC,Community Health Centre,MoH,-33.8775,25.58605,GPS,EC
Eastern Cape,Kwazakhele Clinic,Clinic,MoH,-33.880899,25.59174,GPS,EC
Eastern Cape,Kwazamukucinga Clinic,Clinic,MoH,-32.9428,24.67789,GPS,EC
Eastern Cape,Kwazenzele Clinic,Clinic,MoH,-33.4392,25.97433,GPS,EC
Eastern Cape,Kwelera Clinic,Clinic,MoH,-32.8234,27.9628,GPS,EC
Eastern Cape,Lady Grey Hospital,District Hospital,MoH,-30.7128,27.21188,GPS,EC
Eastern Cape,Laetitia Bam CHC,Community Health Centre,MoH,-33.808,25.39833,GPS,EC
Eastern Cape,Lahlangubo Clinic Ngcobo,Clinic,MoH,-31.6614,27.8667,GPS,EC
Eastern Cape,Lahlangubo Clinic Queenstown,Clinic,MoH,-32.2013,26.69507,GPS,EC
Eastern Cape,Langeni Clinic,Clinic,MoH,-31.4086,28.54192,GPS,EC
Eastern Cape,Lanti Clinic,Clinic,MoH,-31.867,27.35901,GPS,EC
Eastern Cape,Lenye Clinic,Clinic,MoH,-32.7494,27.08574,GPS,EC
Eastern Cape,Lesseyton Clinic,Clinic,MoH,-31.8424,26.77731,GPS,EC
Eastern Cape,Libode Clinic,Clinic,MoH,-31.545,29.0167,GPS,EC
Eastern Cape,Likhetlane Clinic,Clinic,MoH,-30.357,28.52615,GPS,EC
Eastern Cape,Lingelihle Clinic,Clinic,MoH,-32.1806,25.62915,GPS,EC
Eastern Cape,Linton Grange Clinic,Clinic,MoH,-33.9434,25.51546,GPS,EC
Eastern Cape,Livingstone Hospital,Provincial Tertiary Hospital,MoH,-33.925099,25.57074,GPS,EC
Eastern Cape,Livingstone Paediatric Unit,Clinic,MoH,-33.925086,25.57074,GPS,EC
Eastern Cape,Lizo Ngcana Clinic,Clinic,MoH,-31.9216,26.86329,GPS,EC
Eastern Cape,Loerie Clinic,Clinic,MoH,-33.8641,25.02573,GPS,EC
Eastern Cape,Lota Clinic,Clinic,MoH,-31.8632,28.33632,GPS,EC
Eastern Cape,Lotana Clinic,Clinic,MoH,-31.2826,28.91647,GPS,EC
Eastern Cape,Lotusville Clinic,Clinic,MoH,-32.4723,24.04032,GPS,EC
Eastern Cape,Louterwater Clinic,Clinic,MoH,-33.7899,23.63105,GPS,EC
Eastern Cape,Lower Gungululu Clinic,Clinic,MoH,-31.4628,28.82191,GPS,EC
Eastern Cape,Lower Mncuncuzo Clinic,Clinic,MoH,-31.9083,27.59776,GPS,EC
Eastern Cape,Lower Regu Clinic,Clinic,MoH,-32.8181,26.95249,GPS,EC
Eastern Cape,Lower Seplan Clinic,Clinic,MoH,-31.7127,27.4433,GPS,EC
Eastern Cape,Lower Tsitsana Clinic,Clinic,MoH,-30.526,28.20802,GPS,EC
Eastern Cape,Lower Zingcuka Clinic,Clinic,MoH,-32.7191,27.09884,GPS,EC
Eastern Cape,Lubaleko Clinic,Clinic,MoH,-30.6949,29.36698,GPS,EC
Eastern Cape,Lubisi Clinic,Clinic,MoH,-31.7989,27.46015,GPS,EC
Eastern Cape,Ludalasi Clinic,Clinic,MoH,-31.6302,29.32684,GPS,EC
Eastern Cape,Lugangeni Clinic,Clinic,MoH,-30.8333,28.93437,GPS,EC
Eastern Cape,Lujizweni Clinic,Clinic,MoH,-31.7699,29.01789,GPS,EC
Eastern Cape,Lukhanyiso Clinic,Clinic,MoH,-33.5223,25.71037,GPS,EC
Eastern Cape,Lukhanyo Clinic,Clinic,MoH,-33.8171,25.45554,GPS,EC
Eastern Cape,Lulama Kama Clinic,Clinic,MoH,-32.7686,26.65496,GPS,EC
Eastern Cape,Lunga Kobese Clinic,Clinic,MoH,-33.8857,25.58083,GPS,EC
Eastern Cape,Lusikisiki Village Clinic Qaukeni,Clinic,MoH,-31.3741,29.57232,GPS,EC
Eastern Cape,Luthuli Clinic,Clinic,MoH,-32.1199,27.739151,GPS,EC
Eastern Cape,Lutshaya Clinic,Clinic,MoH,-31.3227,29.36059,GPS,EC
Eastern Cape,Lutubeni Clinic,Clinic,MoH,-31.9256,28.88256,GPS,EC
Eastern Cape,Luyengweni Clinic,Clinic,MoH,-30.6528,28.76937,GPS,EC
Eastern Cape,Luyolo NU 9 Clinic,Clinic,MoH,-32.9257,27.73391,GPS,EC
Eastern Cape,Lwandile Clinic,Clinic,MoH,-31.8671,29.20882,GPS,EC
Eastern Cape,Mabandla Clinic,Clinic,MoH,-33.8096,25.37862,GPS,EC
Eastern Cape,Macacuma Clinic,Clinic,MoH,-30.4574,27.35298,GPS,EC
Eastern Cape,Machibini Clinic Kwabhaca,Clinic,MoH,-30.7267,28.71708,GPS,EC
Eastern Cape,Machibini Clinic Queenstown,Clinic,MoH,-31.9205,27.02443,GPS,EC
Eastern Cape,Machubeni Clinic,Clinic,MoH,-31.5598,27.18929,GPS,EC
Eastern Cape,Macibe Clinic,Clinic,MoH,-32.478,28.28549,GPS,EC
Eastern Cape,Mackay's Nek Satellite Clinic,Satellite Clinic,MoH,-31.765,27.11444,GPS,EC
Eastern Cape,Maclear Clinic,Clinic,MoH,-31.0688,28.35162,GPS,EC
Eastern Cape,Maclear Hospital,District Hospital,MoH,-31.0759,28.34775,GPS,EC
Eastern Cape,Madlangala Clinic,Clinic,MoH,-30.1815,28.576871,GPS,EC
Eastern Cape,Madwaleni Hospital,District Hospital,MoH,-32.0958,28.87875,GPS,EC
Eastern Cape,Madzikane kaZulu Memorial Hospital,District Hospital,MoH,-30.9009,28.99562,GPS,EC
Eastern Cape,Magadla Clinic,Clinic,MoH,-30.338,28.682489,GPS,EC
Eastern Cape,Magwa Clinic,Clinic,MoH,-31.4184,29.67125,GPS,EC
Eastern Cape,Magwala Clinic,Clinic,MoH,-32.0069,27.54977,GPS,EC
Eastern Cape,Mahasana Clinic,Clinic,MoH,-32.3383,28.73444,GPS,EC
Eastern Cape,Mahlubini Clinic,Clinic,MoH,-32.0226,27.61034,GPS,EC
Eastern Cape,Mahlungulu Clinic KSD,Clinic,MoH,-31.5726,28.49288,GPS,EC
Eastern Cape,Mahlungulu Clinic Mhlontlo,Clinic,MoH,-31.0568,28.80237,GPS,EC
Eastern Cape,Majola Clinic,Clinic,MoH,-31.4977,29.31876,GPS,EC
Eastern Cape,Makhotyana CHC,Community Health Centre,MoH,-31.435,29.02291,GPS,EC
Eastern Cape,Makwantini Clinic,Clinic,MoH,-31.1059,29.99033,GPS,EC
Eastern Cape,Malabar Satellite Clinic,Satellite Clinic,MoH,-33.9213,25.53266,GPS,EC
Eastern Cape,Malangeni Clinic,Clinic,MoH,-31.3019,29.70136,GPS,EC
Eastern Cape,Maletswai Clinic,Clinic,MoH,-30.6907,26.69861,GPS,EC
Eastern Cape,Malongwana Clinic,Clinic,MoH,-31.0081,29.36362,GPS,EC
Eastern Cape,Malusi Clinic,Clinic,MoH,-31.5771,28.87056,GPS,EC
Eastern Cape,Maluti CHC,Community Health Centre,MoH,-30.2658,28.78891,GPS,EC
Eastern Cape,Mampondomiseni Clinic,Clinic,MoH,-31.6345,29.09056,GPS,EC
Eastern Cape,Mangcwanguleni Clinic,Clinic,MoH,-31.3343,29.16876,GPS,EC
Eastern Cape,Mangoloaneng Clinic,Clinic,MoH,-30.5157,28.46059,GPS,EC
Eastern Cape,Mangqamzeni Clinic,Clinic,MoH,-30.9934,29.07859,GPS,EC
Eastern Cape,Mantlaneni Clinic,Clinic,MoH,-31.2338,29.34253,GPS,EC
Eastern Cape,Mantusini Clinic,Clinic,MoH,-31.5752,29.29401,GPS,EC
Eastern Cape,Manzana Clinic,Clinic,MoH,-31.7374,28.00876,GPS,EC
Eastern Cape,Manzimahle Clinic,Clinic,MoH,-31.6246,27.556488,GPS,EC
Eastern Cape,Mapheleni Clinic,Clinic,MoH,-30.7844,29.25385,GPS,EC
Eastern Cape,Mapuzi Clinic,Clinic,MoH,-31.9593,29.13043,GPS,EC
Eastern Cape,Maqanyeni Clinic,Clinic,MoH,-31.6422,28.97314,GPS,EC
Eastern Cape,Maqashu Clinic,Clinic,MoH,-31.7437,27.33497,GPS,EC
Eastern Cape,Market Square Clinic,Clinic,MoH,-32.2503,24.53867,GPS,EC
Eastern Cape,Marselle Clinic,Clinic,MoH,-33.6793,26.63512,GPS,EC
Eastern Cape,Martje Venter Hospital Tarkastad,District Hospital,MoH,-32.0089,26.25884,GPS,EC
Eastern Cape,Masakhane Clinic Aberdeen,Clinic,MoH,-32.472699000000006,24.05254,GPS,EC
Eastern Cape,Masakhane Clinic Hankey,Clinic,MoH,-33.8277,24.87312,GPS,EC
Eastern Cape,Masakhane Clinic N Mandela Metro,Clinic,MoH,-33.9216,25.445159,GPS,EC
Eastern Cape,Masakhane Clinic Zwelitsha,Clinic,MoH,-32.9256,27.43245,GPS,EC
Eastern Cape,Masakhe Clinic,Clinic,MoH,-31.5544,26.56006,GPS,EC
Eastern Cape,Masele Clinic,Clinic,MoH,-32.9359,27.33074,GPS,EC
Eastern Cape,Masibulele Clinic,Clinic,MoH,-30.3592,27.44133,GPS,EC
Eastern Cape,Masincedane Clinic,Clinic,MoH,-32.6859,27.11363,GPS,EC
Eastern Cape,Masiphile Clinic,Clinic,MoH,-32.8543,27.789121,GPS,EC
Eastern Cape,Matatiele Community Clinic,Clinic,MoH,-30.3343,28.81461,GPS,EC
Eastern Cape,Matomela Clinic,Clinic,MoH,-33.2758,27.11408,GPS,EC
Eastern Cape,Matubeni Clinic,Clinic,MoH,-30.9651,29.16105,GPS,EC
Eastern Cape,Matyantya Clinic,Clinic,MoH,-31.7855,27.07183,GPS,EC
Eastern Cape,Mawusheni Clinic,Clinic,MoH,-31.9406,27.67016,GPS,EC
Eastern Cape,Max Madlingozi Clinic,Clinic,MoH,-33.8697,25.58297,GPS,EC
Eastern Cape,Maxwele Clinic,Clinic,MoH,-31.7045,28.73467,GPS,EC
Eastern Cape,Mbadango Clinic,Clinic,MoH,-31.1114,29.609559,GPS,EC
Eastern Cape,Mbalisweni Clinic,Clinic,MoH,-31.2684,29.11532,GPS,EC
Eastern Cape,Mbekweni CHC,Community Health Centre,MoH,-31.7201,28.68647,GPS,EC
Eastern Cape,Mbokotwana Clinic,Clinic,MoH,-31.2503,28.80663,GPS,EC
Eastern Cape,Mbotyi Clinic,Clinic,MoH,-31.4672,29.729636,GPS,EC
Eastern Cape,Mbulukweza Clinic,Clinic,MoH,-32.2326,27.71693,GPS,EC
Eastern Cape,Mcambalala Clinic,Clinic,MoH,-31.8841,27.49444,GPS,EC
Eastern Cape,Mcewula Clinic,Clinic,MoH,-31.5121,27.528417,GPS,EC
Eastern Cape,Mdanjelwa Clinic,Clinic,MoH,-31.8007,28.21853,GPS,EC
Eastern Cape,Mdeni Clinic,Clinic,MoH,-31.0344,28.779357,GPS,EC
Eastern Cape,Mdingi Clinic,Clinic,MoH,-32.8237,27.32969,GPS,EC
Eastern Cape,Mdyobe Clinic,Clinic,MoH,-31.1325,29.05043,GPS,EC
Eastern Cape,Meje Clinic,Clinic,MoH,-31.0502,29.8747,GPS,EC
Eastern Cape,Melani Clinic,Clinic,MoH,-32.7254,26.87394,GPS,EC
Eastern Cape,Melitafa Clinic,Clinic,MoH,-32.0714,28.68074,GPS,EC
Eastern Cape,Mevana Clinic,Clinic,MoH,-31.528,29.29607,GPS,EC
Eastern Cape,Mfundambini Clinic,Clinic,MoH,-30.8993,29.666544,GPS,EC
Eastern Cape,Mfundisweni Clinic,Clinic,MoH,-30.8983,29.51997,GPS,EC
Eastern Cape,Mgcwe Clinic,Clinic,MoH,-32.1396,28.202157,GPS,EC
Eastern Cape,Mgudu Clinic,Clinic,MoH,-31.4783,28.34694,GPS,EC
Eastern Cape,Mgwalana Clinic,Clinic,MoH,-32.7551,26.96204,GPS,EC
Eastern Cape,Mgwali Clinic,Clinic,MoH,-32.4611,27.60563,GPS,EC
Eastern Cape,Mgwenyane Clinic,Clinic,MoH,-31.5554,29.23329,GPS,EC
Eastern Cape,Mhlahlane Clinic,Clinic,MoH,-31.4184,28.54104,GPS,EC
Eastern Cape,Mhlakulo CHC,Community Health Centre,MoH,-31.4021,28.84407,GPS,EC
Eastern Cape,Mhlanga Clinic,Clinic,MoH,-31.4638,27.16111,GPS,EC
Eastern Cape,Mhlopekazi Clinic,Clinic,MoH,-31.7368,28.26916,GPS,EC
Eastern Cape,Mhlotsheni Clinic,Clinic,MoH,-30.8027,29.09093,GPS,EC
Eastern Cape,Mhlwazi Clinic,Clinic,MoH,-31.5137,27.988413,GPS,EC
Eastern Cape,Michausdal Clinic,Clinic,MoH,-32.1736,25.64495,GPS,EC
Eastern Cape,Middelburg Clinic,Clinic,MoH,-31.4952,25.00791,GPS,EC
Eastern Cape,Middle Street Clinic,Clinic,MoH,-33.7577,25.39107,GPS,EC
Eastern Cape,Middle Terrace Clinic,Clinic,MoH,-33.3003,26.536475,GPS,EC
Eastern Cape,Middle Terrace Satellite Clinic,Satellite Clinic,MoH,-33.300399000000006,26.53672,GPS,EC
Eastern Cape,Middle Terrace TLC Clinic,Clinic,MoH,-33.3004,26.53672,GPS,EC
Eastern Cape,Middledrift CHC,Community Health Centre,MoH,-32.8135,26.98832,GPS,EC
Eastern Cape,Midland Hospital,District Hospital,MoH,-32.2608,24.53619,GPS,EC
Eastern Cape,Midros Clinic,Clinic,MoH,-31.5029,25.02635,GPS,EC
Eastern Cape,Misgund Clinic,Clinic,MoH,-33.7631,23.50235,GPS,EC
Eastern Cape,Missionvale Clinic,Clinic,MoH,-33.8767,25.55003,GPS,EC
Eastern Cape,Mitford Clinic,Clinic,MoH,-31.9895,26.53048,GPS,EC
Eastern Cape,Mjanyana Clinic,Clinic,MoH,-31.8323,28.10611,GPS,EC
Eastern Cape,Mjanyana Hospital,District Hospital,MoH,-31.836,28.1038,GPS,EC
Eastern Cape,Mjika Clinic,Clinic,MoH,-31.4364,28.61004,GPS,EC
Eastern Cape,Mkambathi Clinic,Clinic,MoH,-31.2907,29.94895,GPS,EC
Eastern Cape,Mkanyisi Clinic,Clinic,MoH,-32.5875,27.8858,GPS,EC
Eastern Cape,Mkapusi Clinic,Clinic,MoH,-31.5951,27.10714,GPS,EC
Eastern Cape,Mkemane Clinic,Clinic,MoH,-30.668,29.01856,GPS,EC
Eastern Cape,Mnceba Clinic,Clinic,MoH,-30.8947,29.21214,GPS,EC
Eastern Cape,Mncotsho Clinic,Clinic,MoH,-32.9351,27.59984,GPS,EC
Eastern Cape,Mngungu Clinic,Clinic,MoH,-31.0562,30.03207,GPS,EC
Eastern Cape,Mntwana Clinic,Clinic,MoH,-30.9767,28.9237,GPS,EC
Eastern Cape,Mnyibashe Clinic,Clinic,MoH,-32.1293,27.80417,GPS,EC
Eastern Cape,Mnyolo Clinic,Clinic,MoH,-31.4945,28.28827,GPS,EC
Eastern Cape,Molteno Clinic,Clinic,MoH,-31.3959,26.36049,GPS,EC
Eastern Cape,Molteno Hospital,District Hospital,MoH,-31.3916,26.3555,GPS,EC
Eastern Cape,Mooiplaas Clinic,Clinic,MoH,-32.7376,28.05406,GPS,EC
Eastern Cape,Moore Street Clinic,Clinic,MoH,-33.0128,27.91553,GPS,EC
Eastern Cape,Moses Mabida Clinic,Clinic,MoH,-33.3973,25.48081,GPS,EC
Eastern Cape,Motherwell CHC,Community Health Centre,MoH,-33.8118,25.59794,GPS,EC
Eastern Cape,Motherwell NU 11 Clinic,Clinic,MoH,-33.7833,25.58959,GPS,EC
Eastern Cape,Motherwell NU 2 Clinic,Clinic,MoH,-33.8006,25.60322,GPS,EC
Eastern Cape,Motherwell NU 8 Clinic,Clinic,MoH,-33.8003,25.5898,GPS,EC
Eastern Cape,Mount Arthur Clinic,Clinic,MoH,-31.6864,27.15359,GPS,EC
Eastern Cape,Mount Ayliff Gateway Clinic,Clinic,MoH,-30.8051,29.35965,GPS,EC
Eastern Cape,Mount Ayliff Hospital,District Hospital,MoH,-30.8052,29.3596,GPS,EC
Eastern Cape,Mount Coke CHC,Community Health Centre,MoH,-32.9804,27.44252,GPS,EC
Eastern Cape,Mount Frere Gateway Clinic,Clinic,MoH,-30.9009,28.99564,GPS,EC
Eastern Cape,Mount Hargreaves Clinic,Clinic,MoH,-30.406,28.70661,GPS,EC
Eastern Cape,Mpame Clinic,Clinic,MoH,-32.0979,29.041834,GPS,EC
Eastern Cape,Mpeko Clinic,Clinic,MoH,-31.6236,28.63327,GPS,EC
Eastern Cape,Mpetsheni Clinic,Clinic,MoH,-30.9955,29.80192,GPS,EC
Eastern Cape,Mpharane Clinic,Clinic,MoH,-30.2639,28.47763,GPS,EC
Eastern Cape,Mpindweni Clinic,Clinic,MoH,-31.5117,28.781185,GPS,EC
Eastern Cape,Mpongo Clinic,Clinic,MoH,-33.1576,27.52628,GPS,EC
Eastern Cape,Mpoza Clinic Lusikisiki,Clinic,MoH,-31.2363,29.55721,GPS,EC
Eastern Cape,Mpoza Clinic Mount Frere,Clinic,MoH,-30.7318,29.06932,GPS,EC
Eastern Cape,Mpozolo Clinic,Clinic,MoH,-32.1816,28.77911,GPS,EC
Eastern Cape,Mpukane Clinic,Clinic,MoH,-32.331,27.87466,GPS,EC
Eastern Cape,Mpunzana Clinic,Clinic,MoH,-31.8038,28.66743,GPS,EC
Eastern Cape,Mqambeli Clinic,Clinic,MoH,-32.4203,28.10819,GPS,EC
Eastern Cape,Mqanduli CHC,Community Health Centre,MoH,-31.8235,28.76501,GPS,EC
Eastern Cape,Mqhekezweni Clinic,Clinic,MoH,-31.7335,28.467604,GPS,EC
Eastern Cape,Mqhele Clinic,Clinic,MoH,-31.9942,28.89198,GPS,EC
Eastern Cape,Mqokolweni Clinic,Clinic,MoH,-31.1219,28.549333,GPS,EC
Eastern Cape,Msendo Clinic,Clinic,MoH,-32.2709,28.7894,GPS,EC
Eastern Cape,Msobomvu Clinic,Clinic,MoH,-32.7005,26.85278,GPS,EC
Eastern Cape,Mtakatye Clinic,Clinic,MoH,-31.8464,29.245292,GPS,EC
Eastern Cape,Mtambalala Clinic,Clinic,MoH,-31.325,29.35293,GPS,EC
Eastern Cape,Mthatha Defence Force Clinic,Clinic,MoH,-31.5706,28.654069,GPS,EC
Eastern Cape,Mthatha Gateway Clinic,Clinic,MoH,-31.590287999999997,28.76593,GPS,EC
Eastern Cape,Mthatha General Hospital,Regional Hospital,MoH,-31.5903,28.76593,GPS,EC
Eastern Cape,Mthatha Immunisation Pool Clinic,Clinic,MoH,-31.590286999999996,28.76593,GPS,EC
Eastern Cape,Mtingwevu Clinic,Clinic,MoH,-31.747,27.62817,GPS,EC
Eastern Cape,Mtombe Clinic,Clinic,MoH,-33.0545,27.33463,GPS,EC
Eastern Cape,Mtyholo Clinic,Clinic,MoH,-32.9919,27.35656,GPS,EC
Eastern Cape,Musong Clinic,Clinic,MoH,-30.491,27.56074,GPS,EC
Eastern Cape,Mvenyane Clinic,Clinic,MoH,-30.5525,29.03634,GPS,EC
Eastern Cape,Mwaca Clinic,Clinic,MoH,-30.6399,29.23817,GPS,EC
Eastern Cape,Mxalanga Clinic,Clinic,MoH,-32.7398,27.36593,GPS,EC
Eastern Cape,Mxhelo Clinic,Clinic,MoH,-32.7946,26.73477,GPS,EC
Eastern Cape,Mzamomhle Clinic Albert,Clinic,MoH,-31.0072,26.33522,GPS,EC
Eastern Cape,Mzamomhle Clinic Bedford,Clinic,MoH,-32.6903,26.0966,GPS,EC
Eastern Cape,Mzintlava Clinic,Clinic,MoH,-31.4059,29.510791,GPS,EC
Eastern Cape,Mziwabantu Clinic,Clinic,MoH,-32.578,25.128,GPS,EC
Eastern Cape,Mzongwana Clinic,Clinic,MoH,-30.1677,29.05207,GPS,EC
Eastern Cape,Ncambele Clinic,Clinic,MoH,-31.5013,28.73609,GPS,EC
Eastern Cape,Ncedolwethu Clinic,Clinic,MoH,-31.3295,27.82309,GPS,EC
Eastern Cape,Nceduluntu Clinic,Clinic,MoH,-31.3774,26.35395,GPS,EC
Eastern Cape,Ncembu Clinic,Clinic,MoH,-31.3516,28.40669,GPS,EC
Eastern Cape,Ncera Clinic,Clinic,MoH,-33.1156,27.59237,GPS,EC
Eastern Cape,Ncizele Clinic,Clinic,MoH,-32.593,28.43316,GPS,EC
Eastern Cape,Ncora Clinic,Clinic,MoH,-31.8185,27.74082,GPS,EC
Eastern Cape,Ndabakazi Clinic,Clinic,MoH,-32.3478,28.03817,GPS,EC
Eastern Cape,Ndanya Clinic,Clinic,MoH,-31.5724,28.96171,GPS,EC
Eastern Cape,Ndawenzima Clinic,Clinic,MoH,-30.9095,29.361821,GPS,EC
Eastern Cape,Ndela Clinic,Clinic,MoH,-30.9479,29.713473,GPS,EC
Eastern Cape,Ndevana Clinic,Clinic,MoH,-32.9098,27.50695,GPS,EC
Eastern Cape,Ndibela Clinic,Clinic,MoH,-31.8338,28.41716,GPS,EC
Eastern Cape,Ndofela Clinic,Clinic,MoH,-30.3838,27.43182,GPS,EC
Eastern Cape,Ndonga Clinic,Clinic,MoH,-31.6249,27.389111,GPS,EC
Eastern Cape,Ndwayana Clinic,Clinic,MoH,-33.1604,26.872317,GPS,EC
Eastern Cape,Needs Camp Clinic,Clinic,MoH,-33.0055,27.64703,GPS,EC
Eastern Cape,Nelson Mandela Academic Hospital,National Central Hospital,MoH,-31.5881,28.764234,GPS,EC
Eastern Cape,Nessie Knight Gateway Clinic,Clinic,MoH,-31.0091,28.68223,GPS,EC
Eastern Cape,Nessie Knight Hospital,District Hospital,MoH,-31.009099,28.68223,GPS,EC
Eastern Cape,New Brighton CHC,Community Health Centre,MoH,-33.9086,25.58545,GPS,EC
Eastern Cape,New Brighton Clinic,Clinic,MoH,-33.9049,25.59775,GPS,EC
Eastern Cape,New Rest Clinic,Clinic,MoH,-31.904,26.87168,GPS,EC
Eastern Cape,Newlands Clinic,Clinic,MoH,-32.8778,27.74907,GPS,EC
Eastern Cape,Newtown Clinic,Clinic,MoH,-32.774,26.61334,GPS,EC
Eastern Cape,NG Dlukulu Clinic,Clinic,MoH,-33.2789,26.5777,GPS,EC
Eastern Cape,Ngangelizwe CHC,Community Health Centre,MoH,-31.6014,28.7999,GPS,EC
Eastern Cape,Ngcengane Clinic,Clinic,MoH,-31.5379,28.60434,GPS,EC
Eastern Cape,Ngceza Clinic,Clinic,MoH,-31.9747,27.73446,GPS,EC
Eastern Cape,Ngcobo CHC,Community Health Centre,MoH,-31.6785,28.005490000000002,GPS,EC
Eastern Cape,Ngcolora Clinic,Clinic,MoH,-31.3363,28.8955,GPS,EC
Eastern Cape,Ngcoya Clinic,Clinic,MoH,-31.3887,29.3365,GPS,EC
Eastern Cape,Ngcuka Satellite Clinic,Satellite Clinic,MoH,-31.7285,27.253763,GPS,EC
Eastern Cape,Ngcwanguba CHC,Community Health Centre,MoH,-31.919,29.03239,GPS,EC
Eastern Cape,Ngonyama CHC,Community Health Centre,MoH,-31.6815,26.93369,GPS,EC
Eastern Cape,Ngqanda Satellite Clinic,Satellite Clinic,MoH,-31.6727,27.201655,GPS,EC
Eastern Cape,Ngqeleni Clinic,Clinic,MoH,-31.62,28.84,GPS,EC
Eastern Cape,Ngqungqu Clinic,Clinic,MoH,-31.8654,28.81762,GPS,EC
Eastern Cape,Ngqusi Clinic,Clinic,MoH,-32.4882,28.40364,GPS,EC
Eastern Cape,Ngqwarha Clinic,Clinic,MoH,-31.7339,28.777967,GPS,EC
Eastern Cape,Ngqwaru Clinic,Clinic,MoH,-31.8552,27.7849,GPS,EC
Eastern Cape,Ngqwele Clinic,Clinic,MoH,-32.9049,27.217463,GPS,EC
Eastern Cape,Ngwemnyama Clinic,Clinic,MoH,-31.255,29.01602,GPS,EC
Eastern Cape,Ngwenya Clinic,Clinic,MoH,-31.9495,28.76681,GPS,EC
Eastern Cape,Ngxabangu Clinic,Clinic,MoH,-31.8452,27.610322,GPS,EC
Eastern Cape,Ngxaza Clinic,Clinic,MoH,-31.2148,28.50639,GPS,EC
Eastern Cape,Nier Clinic,Clinic,MoH,-33.3579,27.24207,GPS,EC
Eastern Cape,Nieu-Bethesda Clinic,Clinic,MoH,-31.8685,24.55342,GPS,EC
Eastern Cape,Njwaxa Clinic,Clinic,MoH,-32.8728,26.9056,GPS,EC
Eastern Cape,Nkanga Clinic,Clinic,MoH,-31.4641,29.1744,GPS,EC
Eastern Cape,Nkanunu Clinic,Clinic,MoH,-31.7599,29.23929,GPS,EC
Eastern Cape,Nkanya Clinic,Clinic,MoH,-32.152,28.95035,GPS,EC
Eastern Cape,Nkozo Clinic,Clinic,MoH,-31.2017,29.43002,GPS,EC
Eastern Cape,Nkumandeni Clinic,Clinic,MoH,-31.7301,29.04818,GPS,EC
Eastern Cape,Nkwenkwana Clinic,Clinic,MoH,-31.7716,28.20929,GPS,EC
Eastern Cape,Nkwenkwezi Clinic,Clinic,MoH,-33.5773,26.89252,GPS,EC
Eastern Cape,Nobuhle NU 8 Clinic,Clinic,MoH,-32.9411,27.72508,GPS,EC
Eastern Cape,Nolita Clinic,Clinic,MoH,-31.6998,28.94637,GPS,EC
Eastern Cape,Nolukhanyo Clinic,Clinic,MoH,-33.4937,26.83122,GPS,EC
Eastern Cape,Nomakhwezi Makhenyane Clinic,Clinic,MoH,-32.6929,26.31339,GPS,EC
Eastern Cape,Nomangesi Jayiya Clinic,Clinic,MoH,-33.8205,25.38403,GPS,EC
Eastern Cape,Nomonde Clinic,Clinic,MoH,-31.3865,26.35892,GPS,EC
Eastern Cape,Nompumelelo Clinic,Clinic,MoH,-31.4716,27.34702,GPS,EC
Eastern Cape,Nompumelelo Gateway Clinic,Clinic,MoH,-33.2069,27.13042,GPS,EC
Eastern Cape,Nompumelelo Hospital  Peddie,District Hospital,MoH,-33.2092,27.13244,GPS,EC
Eastern Cape,Nomzamo CHC,Community Health Centre,MoH,-31.913,26.97074,GPS,EC
Eastern Cape,Noncampa Clinic,Clinic,MoH,-32.9074,27.29926,GPS,EC
Eastern Cape,Nontsikelelo Biko Clinic,Clinic,MoH,-31.4816,29.07367,GPS,EC
Eastern Cape,Nontyatyambo CHC,Community Health Centre,MoH,-32.9472,27.75458,GPS,EC
Eastern Cape,Norah Clinic,Clinic,MoH,-33.2278,27.30872,GPS,EC
Eastern Cape,Nosekeni Nongaphi Mandela Clinic,Clinic,MoH,NA,NA,NA,EC
Eastern Cape,Nozuko Clinic,Clinic,MoH,-32.3235,28.16744,GPS,EC
Eastern Cape,Nqabara Clinic,Clinic,MoH,-32.2466,28.72081,GPS,EC
Eastern Cape,Nqabeni Clinic,Clinic,MoH,-32.1188,28.58493,GPS,EC
Eastern Cape,Nqadu Clinic Mbhashe,Clinic,MoH,-32.2357,28.42111,GPS,EC
Eastern Cape,Nqamakwe CHC,Community Health Centre,MoH,-32.2082,27.93613,GPS,EC
Eastern Cape,Nqancule Clinic,Clinic,MoH,-32.3521,27.79323,GPS,EC
Eastern Cape,Nqanda A Clinic,Clinic,MoH,-31.7502,28.92359,GPS,EC
Eastern Cape,Nququ Clinic,Clinic,MoH,-31.8121,27.61321,GPS,EC
Eastern Cape,Nqwathi Clinic,Clinic,MoH,-31.7096,28.358399,GPS,EC
Eastern Cape,Ntaba ka Ndoda Clinic,Clinic,MoH,-32.8183,27.10702,GPS,EC
Eastern Cape,Ntafufu Clinic,Clinic,MoH,-31.4973,29.52724,GPS,EC
Eastern Cape,Ntapane Clinic,Clinic,MoH,-31.5964,28.84865,GPS,EC
Eastern Cape,Ntibane Clinic,Clinic,MoH,-31.8034,29.17939,GPS,EC
Eastern Cape,Ntlabeni Clinic,Clinic,MoH,-30.7422,28.92245,GPS,EC
Eastern Cape,Ntlangaza Clinic,Clinic,MoH,-31.8271,28.87181,GPS,EC
Eastern Cape,Ntlenzi Clinic,Clinic,MoH,-30.9508,29.612515,GPS,EC
Eastern Cape,Ntlola Clinic,Clinic,MoH,-30.5979,29.07986,GPS,EC
Eastern Cape,Ntseshe Clinic,Clinic,MoH,-32.0942,28.09913,GPS,EC
Eastern Cape,Ntshabeni Clinic,Clinic,MoH,-31.5192,28.66785,GPS,EC
Eastern Cape,Ntshele Clinic,Clinic,MoH,-31.6726,28.72257,GPS,EC
Eastern Cape,Ntshentshe Clinic,Clinic,MoH,-30.7076,29.53514,GPS,EC
Eastern Cape,Ntshingeni Clinic,Clinic,MoH,-32.0475,27.425195,GPS,EC
Eastern Cape,Ntsimba Clinic,Clinic,MoH,-31.859199,28.21192,GPS,EC
Eastern Cape,Ntsitho Clinic,Clinic,MoH,-31.8592,28.21192,GPS,EC
Eastern Cape,Ntsizwa Clinic,Clinic,MoH,-30.7381,29.24517,GPS,EC
Eastern Cape,NU 12 Clinic,Clinic,MoH,-32.9328,27.71785,GPS,EC
Eastern Cape,NU 13 Clinic,Clinic,MoH,-32.9414,27.70068,GPS,EC
Eastern Cape,NU 16 Clinic,Clinic,MoH,-32.959,27.69318,GPS,EC
Eastern Cape,NU 17 Clinic,Clinic,MoH,-32.9489,27.68623,GPS,EC
Eastern Cape,Nxotwe Clinic Qumbu,Clinic,MoH,-31.161,28.73077,GPS,EC
Eastern Cape,Nyalasa Clinic,Clinic,MoH,-31.6908,27.67961,GPS,EC
Eastern Cape,Nyandeni Clinic,Clinic,MoH,-31.4555,28.97198,GPS,EC
Eastern Cape,Nyaniso Clinic,Clinic,MoH,-30.5588,28.733564,GPS,EC
Eastern Cape,Nyhwara Clinic,Clinic,MoH,-31.9441,28.37329,GPS,EC
Eastern Cape,Nzulwini Clinic,Clinic,MoH,-32.0324,29.10749,GPS,EC
Eastern Cape,Old Bunting Clinic,Clinic,MoH,-31.6723,29.18154,GPS,EC
Eastern Cape,Openshaw Clinic,Clinic,MoH,-33.1582,27.4473,GPS,EC
Eastern Cape,Oviston Satellite Clinic,Satellite Clinic,MoH,-30.778,25.7972,GPS,EC
Eastern Cape,Oxton Clinic,Clinic,MoH,-32.2279,26.70609,GPS,EC
Eastern Cape,Paballong Clinic,Clinic,MoH,-30.4205,28.50627,GPS,EC
Eastern Cape,Pakamisa Clinic,Clinic,MoH,-32.9358,27.45253,GPS,EC
Eastern Cape,Pal 1 Clinic,Clinic,MoH,-33.5666,26.89159,GPS,EC
Eastern Cape,Pal 2 Clinic,Clinic,MoH,-33.5792,26.88387,GPS,EC
Eastern Cape,Palmerton Clinic,Clinic,MoH,-31.3221,29.49067,GPS,EC
Eastern Cape,Palmietfontein Clinic,Clinic,MoH,-30.4307,27.53343,GPS,EC
Eastern Cape,Park Centre Clinic,Clinic,MoH,-33.7639,25.40144,GPS,EC
Eastern Cape,Parkvale Clinic,Clinic,MoH,-31.9211,26.87389,GPS,EC
Eastern Cape,Patensie Town Satellite Clinic,Satellite Clinic,MoH,-33.7589,24.81069,GPS,EC
Eastern Cape,Paterson Clinic,Clinic,MoH,-33.4403,25.97368,GPS,EC
Eastern Cape,Peddie Extension Clinic,Clinic,MoH,-33.1998,27.1041,GPS,EC
Eastern Cape,Peelton Clinic,Clinic,MoH,-32.7727,27.49782,GPS,EC
Eastern Cape,Pefferville Clinic,Clinic,MoH,-33.0119,27.88081,GPS,EC
Eastern Cape,Pelandaba Clinic,Clinic,MoH,-30.5994,27.60077,GPS,EC
Eastern Cape,Pellsrus Clinic,Clinic,MoH,-34.0588,24.9217,GPS,EC
Eastern Cape,Perksdale Clinic,Clinic,MoH,-32.8925,27.07595,GPS,EC
Eastern Cape,Petros Jobane Clinic,Clinic,MoH,-32.9676,27.88499,GPS,EC
Eastern Cape,Phahlakazi Clinic,Clinic,MoH,-31.7699,29.275463,GPS,EC
Eastern Cape,Phakamile Clinic,Clinic,MoH,-31.9368,28.56669,GPS,EC
Eastern Cape,Philani Clinic Cradock,Clinic,MoH,-32.182,25.64048,GPS,EC
Eastern Cape,Philani Clinic Emalahleni,Clinic,MoH,-31.7199,27.19939,GPS,EC
Eastern Cape,Philani Clinic King William's Town,Clinic,MoH,-32.7002,27.55359,GPS,EC
Eastern Cape,Philani Clinic Queenstown,Clinic,MoH,-31.9108,26.87025,GPS,EC
Eastern Cape,Philani NU 1 Clinic,Clinic,MoH,-32.9384,27.77033,GPS,EC
Eastern Cape,Pikholi Clinic,Clinic,MoH,-33.1881,26.96416,GPS,EC
Eastern Cape,Pilani Clinic,Clinic,MoH,-31.9056,29.1473,GPS,EC
Eastern Cape,Pirie Clinic,Clinic,MoH,-32.7924,27.24578,GPS,EC
Eastern Cape,Plumstead Clinic,Clinic,MoH,-32.0262,27.79333,GPS,EC
Eastern Cape,Poly Clinic,Clinic,MoH,-30.6929,26.70762,GPS,EC
Eastern Cape,Port Alfred Clinic,Clinic,MoH,-33.5924,26.88717,GPS,EC
Eastern Cape,Port Alfred Hospital,District Hospital,MoH,-33.5953,26.88312,GPS,EC
Eastern Cape,Port Elizabeth Provincial Hospital,Provincial Tertiary Hospital,MoH,-33.9584,25.59982,GPS,EC
Eastern Cape,Port St Johns CHC,Community Health Centre,MoH,-31.6323,29.54569,GPS,EC
Eastern Cape,Potsdam Clinic,Clinic,MoH,-32.9811,27.64419,GPS,EC
Eastern Cape,Pricesdale Clinic,Clinic,MoH,-32.2477,26.72643,GPS,EC
Eastern Cape,Prinsvale Clinic,Clinic,MoH,-33.027,24.325,GPS,EC
Eastern Cape,Punzana Clinic,Clinic,MoH,-33.049,27.3669,GPS,EC
Eastern Cape,Qamata Clinic,Clinic,MoH,-31.9746,27.43482,GPS,EC
Eastern Cape,Qandu Clinic,Clinic,MoH,-31.733,29.27919,GPS,EC
Eastern Cape,Qanqu Clinic,Clinic,MoH,-30.9188,28.73301,GPS,EC
Eastern Cape,Qaqa Clinic,Clinic,MoH,-31.0204,29.2179,GPS,EC
Eastern Cape,Qasa Clinic,Clinic,MoH,-31.0268,29.41773,GPS,EC
Eastern Cape,Qaukeni Clinic,Clinic,MoH,-31.1641,29.34669,GPS,EC
Eastern Cape,Qebe Clinic,Clinic,MoH,-31.5122,28.0356,GPS,EC
Eastern Cape,Qeto Clinic,Clinic,MoH,-33.326,27.098,GPS,EC
Eastern Cape,Qhiba Clinic,Clinic,MoH,-31.4385,27.72345,GPS,EC
Eastern Cape,Qibira Clinic,Clinic,MoH,-32.9455,27.03459,GPS,EC
Eastern Cape,Qina Clinic,Clinic,MoH,-32.4548,28.18251,GPS,EC
Eastern Cape,Qitsi Clinic,Clinic,MoH,-31.9187,27.92868,GPS,EC
Eastern Cape,Qobo Clinic,Clinic,MoH,-30.7349,29.705825,GPS,EC
Eastern Cape,Qokolweni Clinic,Clinic,MoH,-31.7021,28.7795,GPS,EC
Eastern Cape,Qolombane Clinic Qumbu,Clinic,MoH,-31.4208,28.75845,GPS,EC
Eastern Cape,Qolora-By-Sea Clinic,Clinic,MoH,-32.6335,28.41432,GPS,EC
Eastern Cape,Qombolo Clinic,Clinic,MoH,-32.0024,27.66446,GPS,EC
Eastern Cape,Qoqodala Clinic,Clinic,MoH,-31.7159,26.95022,GPS,EC
Eastern Cape,Queen Nonesi Clinic,Clinic,MoH,-31.821,27.01094,GPS,EC
Eastern Cape,Queen Noti Clinic,Clinic,MoH,-31.1614,28.54875,GPS,EC
Eastern Cape,Queen's Mercy Clinic,Clinic,MoH,-30.2544,28.56883,GPS,EC
Eastern Cape,Qumanco Clinic,Clinic,MoH,-31.7859,27.92353,GPS,EC
Eastern Cape,Qumanco J Tribal Clinic,Clinic,MoH,-31.7938,27.81937,GPS,EC
Eastern Cape,Qumbu CHC,Community Health Centre,MoH,-31.1672,28.86993,GPS,EC
Eastern Cape,Qunu Clinic,Clinic,MoH,-31.7714,28.61708,GPS,EC
Eastern Cape,Qurhu Clinic,Clinic,MoH,-33.0025,27.54388,GPS,EC
Eastern Cape,Qwaninga Clinic,Clinic,MoH,-32.3983,28.62071,GPS,EC
Eastern Cape,Qwidlana Clinic,Clinic,MoH,-30.7988,28.708077,GPS,EC
Eastern Cape,Qwiliqwili Clinic,Clinic,MoH,-32.2836,27.736927,GPS,EC
Eastern Cape,Rabula Clinic,Clinic,MoH,-32.7486,27.16602,GPS,EC
Eastern Cape,Raglan Road Clinic,Clinic,MoH,-33.3068,26.54034,GPS,EC
Eastern Cape,Raymond Mhlaba Clinic,Clinic,MoH,-33.2003,26.14859,GPS,EC
Eastern Cape,Rhodes Satellite Clinic,Satellite Clinic,MoH,-30.7983,27.95999,GPS,EC
Eastern Cape,Rietbron Clinic,Clinic,MoH,-33.1395,23.6142,GPS,EC
Eastern Cape,Robert Mbelekana Clinic,Clinic,MoH,-33.1659,26.91626,GPS,EC
Eastern Cape,Robert Mjobo Clinic,Clinic,MoH,-30.7128,27.21183,GPS,EC
Eastern Cape,Rocklands Clinic,Clinic,MoH,-32.0168,26.47956,GPS,EC
Eastern Cape,Rodana Clinic,Clinic,MoH,-31.9146,27.2014,GPS,EC
Eastern Cape,Rode Clinic,Clinic,MoH,-30.8257,29.13832,GPS,EC
Eastern Cape,Rolweni Clinic,Clinic,MoH,-30.5593,28.81228,GPS,EC
Eastern Cape,Rosedale CHC,Community Health Centre,MoH,-33.7368,25.37618,GPS,EC
Eastern Cape,Rwantsana Clinic,Clinic,MoH,-31.8449,27.313392,GPS,EC
Eastern Cape,Rwarwa Clinic,Clinic,MoH,-32.745,26.90983,GPS,EC
Eastern Cape,Sabalele Clinic,Clinic,MoH,-32.1065,27.45574,GPS,EC
Eastern Cape,Sada Clinic,Clinic,MoH,-32.2028,26.81038,GPS,EC
Eastern Cape,Sandbult Clinic,Clinic,MoH,-31.0003,26.329916,GPS,EC
Eastern Cape,Sanddrif Clinic,Clinic,MoH,-33.9901,23.9695,GPS,EC
Eastern Cape,Sangoni Clinic,Clinic,MoH,-31.6906,28.77252,GPS,EC
Eastern Cape,SAWAS Memorial Hospital Jansenville,District Hospital,MoH,-32.9422,24.66203,GPS,EC
Eastern Cape,Schauderville Clinic,Clinic,MoH,-33.93308400000001,25.57539,GPS,EC
Eastern Cape,Sebeni Clinic,Clinic,MoH,-32.389443,28.596207,GPS,EC
Eastern Cape,Seqhobong Clinic,Clinic,MoH,-30.4353,28.42479,GPS,EC
Eastern Cape,Settlers Day Hospital,Community Health Centre,MoH,-33.3077,26.5335,GPS,EC
Eastern Cape,Settlers Hospital,District Hospital,MoH,-33.3024,26.51464,GPS,EC
Eastern Cape,Seymour Clinic,Clinic,MoH,-32.5507,26.7662,GPS,EC
Eastern Cape,Shawbury Clinic,Clinic,MoH,-31.231,28.95821,GPS,EC
Eastern Cape,Shepherds Hope Clinic,Clinic,MoH,-30.346800000000002,28.59292,GPS,EC
Eastern Cape,Sheshegu Clinic,Clinic,MoH,-32.9013,26.785,GPS,EC
Eastern Cape,Shiloh Clinic,Clinic,MoH,-32.2003,26.82721,GPS,EC
Eastern Cape,Shornville Clinic,Clinic,MoH,-32.8974,27.3988,GPS,EC
Eastern Cape,Sidwadweni Clinic,Clinic,MoH,-31.3564,28.83616,GPS,EC
Eastern Cape,Sidwell Satellite Clinic,Satellite Clinic,MoH,-33.9331,25.57539,GPS,EC
Eastern Cape,Sifonondile Clinic,Clinic,MoH,-31.4913,27.64003,GPS,EC
Eastern Cape,Sigidi Clinic,Clinic,MoH,-30.9424,29.351461,GPS,EC
Eastern Cape,Silvertown Clinic,Clinic,MoH,-33.8265,25.40224,GPS,EC
Eastern Cape,Sinebhongo Clinic,Clinic,MoH,-32.9818,27.85745,GPS,EC
Eastern Cape,Sinqumeni Clinic,Clinic,MoH,-31.4181,28.263015,GPS,EC
Eastern Cape,Sipetu Gateway Clinic,Clinic,MoH,-31.0917,29.18725,GPS,EC
Eastern Cape,Sipetu Hospital,District Hospital,MoH,-31.0917,29.18731,GPS,EC
Eastern Cape,Sitebe Clinic,Clinic,MoH,-31.8829,28.58088,GPS,EC
Eastern Cape,Soga Clinic,Clinic,MoH,-32.0292,28.73821,GPS,EC
Eastern Cape,Sonwabile Clinic,Clinic,MoH,-31.0745,28.36102,GPS,EC
Eastern Cape,Sonwabo Zandile Clinic,Clinic,MoH,-30.9666,27.59404,GPS,EC
Eastern Cape,SOS Clinic,Clinic,MoH,-31.6222,28.745361,GPS,EC
Eastern Cape,Soto Clinic,Clinic,MoH,-32.6985,28.13394,GPS,EC
Eastern Cape,Soweto Clinic,Clinic,MoH,-33.8599,25.56761,GPS,EC
Eastern Cape,Springrove Clinic,Clinic,MoH,-32.1105,26.46334,GPS,EC
Eastern Cape,Springs Clinic,Clinic,MoH,-32.4598,28.07916,GPS,EC
Eastern Cape,SS Gida Gateway Clinic,Clinic,MoH,-32.6745,27.14364,GPS,EC
Eastern Cape,SS Gida Hospital,District Hospital,MoH,-32.6745,27.1435,GPS,EC
Eastern Cape,St Augustine's Clinic,Clinic,MoH,-31.2242,28.60248,GPS,EC
Eastern Cape,St Barnabas Gateway Clinic,Clinic,MoH,-31.5642,29.11617,GPS,EC
Eastern Cape,St Barnabas Hospital,District Hospital,MoH,-31.564199,29.11617,GPS,EC
Eastern Cape,St Elizabeth's Gateway Clinic,Clinic,MoH,-31.3599,29.56554,GPS,EC
Eastern Cape,St Elizabeth's Hospital,Regional Hospital,MoH,-31.3598,29.56532,GPS,EC
Eastern Cape,St Francis Bay Clinic,Clinic,MoH,-34.1746,24.81781,GPS,EC
Eastern Cape,St Francis Hospital,District Hospital,MoH,-30.6887,26.69921,GPS,EC
Eastern Cape,St Lucy's Gateway Clinic,Clinic,MoH,-31.3004,28.63081,GPS,EC
Eastern Cape,St Lucy's Hospital,District Hospital,MoH,-31.3007,28.62983,GPS,EC
Eastern Cape,St Mark's Clinic,Clinic,MoH,-32.0127,27.40759,GPS,EC
Eastern Cape,St Matthew's Clinic,Clinic,MoH,-32.6477,27.18104,GPS,EC
Eastern Cape,St Michael's Clinic,Clinic,MoH,-30.4713,27.44145,GPS,EC
Eastern Cape,St Patrick's Gateway Clinic,Clinic,MoH,-30.8653,29.85164,GPS,EC
Eastern Cape,St Patrick's Hospital,District Hospital,MoH,-30.8654,29.85162,GPS,EC
Eastern Cape,St Thomas Clinic,Clinic,MoH,-32.6989,27.37067,GPS,EC
Eastern Cape,Stanford Terrace Clinic,Clinic,MoH,-31.5862,28.78321,GPS,EC
Eastern Cape,Station Hill Clinic,Clinic,MoH,-33.5817,26.89301,GPS,EC
Eastern Cape,Sterkspruit Town Clinic,Clinic,MoH,-30.533199,27.35337,GPS,EC
Eastern Cape,Sterkstroom Clinic,Clinic,MoH,-31.5531,26.55336,GPS,EC
Eastern Cape,Sterkstroom Hospital,District Hospital,MoH,-31.5531,26.55338,GPS,EC
Eastern Cape,Steynsburg Clinic,Clinic,MoH,-31.2959,25.82442,GPS,EC
Eastern Cape,Steynsburg Hospital,District Hospital,MoH,-31.2932,25.813211,GPS,EC
Eastern Cape,Steytler Satellite Clinic,Satellite Clinic,MoH,-33.933083,25.57539,GPS,EC
Eastern Cape,Stoney Croft Satellite Clinic,Satellite Clinic,MoH,-31.6831,27.31765,GPS,EC
Eastern Cape,Stormsriver Satellite Clinic,Satellite Clinic,MoH,-33.9948,23.88756,GPS,EC
Eastern Cape,Stow Road Clinic,Clinic,MoH,-33.7731,25.40637,GPS,EC
Eastern Cape,Stutterheim Clinic,Clinic,MoH,-32.5694,27.42647,GPS,EC
Eastern Cape,Stutterheim Hospital,District Hospital,MoH,-32.5713,27.419427,GPS,EC
Eastern Cape,Sundays Valley  Hospital Kirkwood,District Hospital,MoH,-33.3947,25.44001,GPS,EC
Eastern Cape,Sunduza Clinic,Clinic,MoH,-30.6155,27.39112,GPS,EC
Eastern Cape,Sundwana Clinic,Clinic,MoH,-32.0956,28.5514,GPS,EC
Eastern Cape,Swartkops Satellite Clinic,Satellite Clinic,MoH,-33.8809,25.59174,GPS,EC
Eastern Cape,Swartwater Clinic,Clinic,MoH,-31.6665,26.83138,GPS,EC
Eastern Cape,Sweetwaters Clinic,Clinic,MoH,-32.9015,27.41565,GPS,EC
Eastern Cape,Sydenham Satellite Clinic,Satellite Clinic,MoH,-33.9366,25.60241,GPS,EC
Eastern Cape,Tabankulu CHC,Community Health Centre,MoH,-30.9633,29.29951,GPS,EC
Eastern Cape,Tabase Clinic,Clinic,MoH,-31.5718,28.5706,GPS,EC
Eastern Cape,Tafalofefe Gateway Clinic,Clinic,MoH,-32.4292,28.47317,GPS,EC
Eastern Cape,Tafalofefe Hospital,District Hospital,MoH,-32.4102,28.51829,GPS,EC
Eastern Cape,Taleni Clinic,Clinic,MoH,-32.161,28.38973,GPS,EC
Eastern Cape,Tamara Clinic,Clinic,MoH,-33.0001,27.23607,GPS,EC
Eastern Cape,Tanga Clinic,Clinic,MoH,-32.2529,28.18506,GPS,EC
Eastern Cape,Tarkastad Clinic,Clinic,MoH,-32.0099,26.25936,GPS,EC
Eastern Cape,Tayler Bequest Gateway Clinic Matatiele,Clinic,MoH,-30.3473,28.82105,GPS,EC
Eastern Cape,Tayler Bequest Hospital Matatiele,District Hospital,MoH,-30.3327,28.80195,GPS,EC
Eastern Cape,Taylor Bequest Gateway Clinic Elundini,Clinic,MoH,-30.6892,28.50994,GPS,EC
Eastern Cape,Taylor Bequest Hospital Elundini,District Hospital,MoH,-30.6894,28.50961,GPS,EC
Eastern Cape,Tela Clinic,Clinic,MoH,-30.759,29.45606,GPS,EC
Eastern Cape,Tembelihle Clinic,Clinic,MoH,-31.5275,27.70009,GPS,EC
Eastern Cape,Tembisa NU 7 Clinic,Clinic,MoH,-32.953,27.72368,GPS,EC
Eastern Cape,Tentergate Clinic,Clinic,MoH,-32.0907,26.46209,GPS,EC
Eastern Cape,Thabachicha Clinic,Clinic,MoH,-30.3631,28.39098,GPS,EC
Eastern Cape,Thanduxolo Clinic,Clinic,MoH,-33.7945,25.57816,GPS,EC
Eastern Cape,Thembalesizwe Clinic,Clinic,MoH,-32.4727,24.05254,GPS,EC
Eastern Cape,Thembalethu Clinic Buffalo City,Clinic,MoH,-32.8872,27.789093,GPS,EC
Eastern Cape,Thembalethu Clinic Sakhisizwe,Clinic,MoH,-31.3376,27.86087,GPS,EC
Eastern Cape,Thembisa Clinic,Clinic,MoH,-31.021,26.3188,GPS,EC
Eastern Cape,Theo Claasen Satellite Clinic,Satellite Clinic,MoH,-33.884699000000005,25.51816,GPS,EC
Eastern Cape,Thornhill CHC,Community Health Centre,MoH,-31.9872,26.61368,GPS,EC
Eastern Cape,Thornhill Clinic,Clinic,MoH,-33.8909,25.147596,GPS,EC
Eastern Cape,Thozamile Madakana Clinic,Clinic,MoH,-32.7737,26.64749,GPS,EC
Eastern Cape,Tina Falls Clinic,Clinic,MoH,-31.2197,29.02021,GPS,EC
Eastern Cape,Tombo CHC,Community Health Centre,MoH,-31.6274,29.38288,GPS,EC
Eastern Cape,Tora Clinic,Clinic,MoH,-31.8843,28.15048,GPS,EC
Eastern Cape,Trafalgar Clinic,Clinic,MoH,-33.9419,25.60289,GPS,EC
Eastern Cape,Tsakana Clinic,Clinic,MoH,-31.8478,27.468639,GPS,EC
Eastern Cape,Tsawana Clinic,Clinic,MoH,-30.807,29.91565,GPS,EC
Eastern Cape,Tsembeyi Clinic,Clinic,MoH,-31.5858,27.01401,GPS,EC
Eastern Cape,Tsengiwe Clinic,Clinic,MoH,-31.5732,27.657083,GPS,EC
Eastern Cape,Tshabo Clinic,Clinic,MoH,-32.9273,27.54748,GPS,EC
Eastern Cape,Tshangana Clinic,Clinic,MoH,-33.8911,25.599240000000002,GPS,EC
Eastern Cape,Tshatshu Clinic,Clinic,MoH,-32.9168,27.45184,GPS,EC
Eastern Cape,Tshezi Clinic,Clinic,MoH,-31.958,29.092837,GPS,EC
Eastern Cape,Tshungwana Clinic,Clinic,MoH,-30.9776,29.02733,GPS,EC
Eastern Cape,Tsilitwa Clinic,Clinic,MoH,-30.9798,28.74038,GPS,EC
Eastern Cape,Tsitsikamma Clinic,Clinic,MoH,-32.2269,26.56985,GPS,EC
Eastern Cape,Tsolo Clinic,Clinic,MoH,-31.3071,28.75855,GPS,EC
Eastern Cape,Tsomo Village Clinic,Clinic,MoH,-32.0383,27.82084,GPS,EC
Eastern Cape,Tutura Clinic,Clinic,MoH,-32.3796,28.23459,GPS,EC
Eastern Cape,Twecu Clinic,Clinic,MoH,-33.0675,27.25407,GPS,EC
Eastern Cape,Twee Riviere Clinic,Clinic,MoH,-33.8396,23.89247,GPS,EC
Eastern Cape,Tyali Clinic,Clinic,MoH,-32.5754,28.32852,GPS,EC
Eastern Cape,Tyamzashe FP Clinic,Clinic,MoH,-32.8464,27.44079,GPS,EC
Eastern Cape,Tyata Clinic,Clinic,MoH,-33.185,27.16,GPS,EC
Eastern Cape,Tyelebana Clinic,Clinic,MoH,-31.6902,28.44021,GPS,EC
Eastern Cape,Tylden Clinic,Clinic,MoH,-32.115,27.07048,GPS,EC
Eastern Cape,Tyutyu Clinic,Clinic,MoH,-32.8424,27.45701,GPS,EC
Eastern Cape,Tyutyu Village Clinic,Clinic,MoH,-32.8334,27.38691,GPS,EC
Eastern Cape,Ugie Clinic,Clinic,MoH,-31.1967,28.23143,GPS,EC
Eastern Cape,Uitenhage Hospital,District Hospital,MoH,-33.7415,25.40679,GPS,EC
Eastern Cape,Ulundi Clinic,Clinic,MoH,-30.644,28.20936,GPS,EC
Eastern Cape,Umasizakhe Clinic,Clinic,MoH,-32.2502,24.54153,GPS,EC
Eastern Cape,Umlamli Gateway Clinic,Clinic,MoH,-30.5604,27.47457,GPS,EC
Eastern Cape,Umlamli Hospital,District Hospital,MoH,-30.560399,27.47457,GPS,EC
Eastern Cape,Umnga Flats Clinic,Clinic,MoH,-31.4386,28.36893,GPS,EC
Eastern Cape,Umtumase Clinic,Clinic,MoH,-30.5651,28.543328,GPS,EC
Eastern Cape,Union Street Clinic,Clinic,MoH,-32.7201,25.58314,GPS,EC
Eastern Cape,Upper Lafuta Clinic,Clinic,MoH,-31.6316,27.62406,GPS,EC
Eastern Cape,Upper Mncuncuzo Clinic,Clinic,MoH,-31.9089,27.54861,GPS,EC
Eastern Cape,Upper Ncera Clinic,Clinic,MoH,-32.7317,26.92783,GPS,EC
Eastern Cape,Upper Xongora Clinic,Clinic,MoH,-31.673,28.52188,GPS,EC
Eastern Cape,Vaalbank Clinic,Clinic,MoH,-31.6083,26.92519,GPS,EC
Eastern Cape,Veeplaas Clinic,Clinic,MoH,-33.8537,25.55072,GPS,EC
Eastern Cape,Venterstad Clinic,Clinic,MoH,-30.7782,25.79686,GPS,EC
Eastern Cape,Vera Barford Clinic,Clinic,MoH,-32.7346,25.59144,GPS,EC
Eastern Cape,Victoria Gateway Clinic,Clinic,MoH,-32.775199,26.84678,GPS,EC
Eastern Cape,Victoria Hospital,District Hospital,MoH,-32.7752,26.84678,GPS,EC
Eastern Cape,Victoria Street Clinic,Clinic,MoH,-33.3324,24.34143,GPS,EC
Eastern Cape,Virginia Shumane Clinic,Clinic,MoH,-33.2961,26.54646,GPS,EC
Eastern Cape,Vukukhanye Gateway Clinic,Clinic,MoH,-32.0956,28.87835,GPS,EC
Eastern Cape,Vuyolwethu Clinic,Clinic,MoH,-33.3326,24.34141,GPS,EC
Eastern Cape,Walmer 14th Avenue Clinic,Clinic,MoH,-33.9823,25.56297,GPS,EC
Eastern Cape,War Memorial Clinic,Clinic,MoH,-32.7928,26.83078,GPS,EC
Eastern Cape,Wartburg Clinic,Clinic,MoH,-32.4447,27.42067,GPS,EC
Eastern Cape,Washington Clinic,Clinic,MoH,-32.9922,27.01054,GPS,EC
Eastern Cape,Welcomewood Clinic,Clinic,MoH,-33.0091,27.59793,GPS,EC
Eastern Cape,Wells Estate Clinic,Clinic,MoH,-33.8227,25.63385,GPS,EC
Eastern Cape,Wesley Clinic,Clinic,MoH,-33.3226,27.33689,GPS,EC
Eastern Cape,West End CHC,Community Health Centre,MoH,-33.8847,25.51816,GPS,EC
Eastern Cape,Westbank Nursery School Satellite Clinic,Satellite Clinic,MoH,-33.0318,27.91022,GPS,EC
Eastern Cape,Weston Clinic,Clinic,MoH,-33.8484,24.86541,GPS,EC
Eastern Cape,Whittlesea CHC,Community Health Centre,MoH,-32.1729,26.82082,GPS,EC
Eastern Cape,Wilhelm Stahl Hospital Middelburg,District Hospital,MoH,-31.4917,24.99351,GPS,EC
Eastern Cape,Willowmore Clinic,Clinic,MoH,-33.2921,23.48714,GPS,EC
Eastern Cape,Willowmore Hospital,District Hospital,MoH,-33.3004,23.46757,GPS,EC
Eastern Cape,Willowvale CHC,Community Health Centre,MoH,-32.2654,28.49823,GPS,EC
Eastern Cape,Wilo Clinic,Clinic,MoH,-31.8936,28.94321,GPS,EC
Eastern Cape,Wittebergen Clinic,Clinic,MoH,-30.6023,27.10606,GPS,EC
Eastern Cape,Wongalethu Clinic,Clinic,MoH,-33.0267,24.32549,GPS,EC
Eastern Cape,Woodlands Clinic,Clinic,MoH,-34.0031,24.16501,GPS,EC
Eastern Cape,Xhora CHC,Community Health Centre,MoH,-31.9678,28.68389,GPS,EC
Eastern Cape,Xhwili Clinic,Clinic,MoH,-31.7352,28.567990000000002,GPS,EC
Eastern Cape,Xonxa Clinic,Clinic,MoH,-31.8489,27.08949,GPS,EC
Eastern Cape,Xopozo Clinic,Clinic,MoH,-30.9883,29.460376,GPS,EC
Eastern Cape,Xume Clinic,Clinic,MoH,-32.0595,27.9032,GPS,EC
Eastern Cape,Xurana Clinic,Clinic,MoH,-31.2348,29.494853,GPS,EC
Eastern Cape,Yonda Clinic,Clinic,MoH,-32.2842,26.67465,GPS,EC
Eastern Cape,Zabasa Clinic,Clinic,MoH,-31.4464,28.27157,GPS,EC
Eastern Cape,Zadungeni Clinic,Clinic,MoH,-31.5612,27.89382,GPS,EC
Eastern Cape,Zalara Clinic,Clinic,MoH,-32.5953,27.10132,GPS,EC
Eastern Cape,Zanempilo Clinic East London,Clinic,MoH,-32.9545,27.99148,GPS,EC
Eastern Cape,Zanempilo Clinic Zwelitsha,Clinic,MoH,-32.801,27.41786,GPS,EC
Eastern Cape,Zazulwana Clinic,Clinic,MoH,-32.2946,28.16056,GPS,EC
Eastern Cape,Zenethemba Clinic,Clinic,MoH,-30.4874,27.40608,GPS,EC
Eastern Cape,Zidindi Clinic,Clinic,MoH,-31.9897,29.03222,GPS,EC
Eastern Cape,Zigodlo Clinic,Clinic,MoH,-32.9835,27.06527,GPS,EC
Eastern Cape,Zihlahleni Clinic,Clinic,MoH,-32.8623,27.201076,GPS,EC
Eastern Cape,Zikhova Clinic,Clinic,MoH,-33.2292,27.47831,GPS,EC
Eastern Cape,Zingisa Clinic,Clinic,MoH,-33.8662,25.58265,GPS,EC
Eastern Cape,Zingisa NU 5 Clinic,Clinic,MoH,-32.9565,27.73869,GPS,EC
Eastern Cape,Zingquthu Clinic,Clinic,MoH,-31.7514,26.86089,GPS,EC
Eastern Cape,Zitatele Clinic,Clinic,MoH,-31.554,28.832123,GPS,EC
Eastern Cape,Zitulele Gateway Clinic,Clinic,MoH,-32.0505,29.09164,GPS,EC
Eastern Cape,Zitulele Hospital,District Hospital,MoH,-32.0505,29.09162,GPS,EC
Eastern Cape,Zola Clinic,Clinic,MoH,-32.0115,26.24756,GPS,EC
Eastern Cape,Zulu Clinic,Clinic,MoH,-30.9835,29.30279,GPS,EC
Eastern Cape,Zwelakhe Dalasile CHC,Community Health Centre,MoH,-31.6481,28.24387,GPS,EC
Eastern Cape,Zwelebhunga Clinic,Clinic,MoH,-31.9987,28.72919,GPS,EC
Eastern Cape,Zweledinga Clinic,Clinic,MoH,-32.322,26.67521,GPS,EC
Eastern Cape,Zwelichumile Clinic,Clinic,MoH,-31.8929,28.627522,GPS,EC
Eastern Cape,Zwelitsha Zone 5 Clinic,Clinic,MoH,-32.9241,27.42365,GPS,EC
Eastern Cape,Zwide Clinic,Clinic,MoH,-33.868,25.555168,GPS,EC
Free State,Aandrus Clinic,Clinic,MoH,-29.1255,26.1952,GPS,FS
Free State,Albert Luthuli Memorial Clinic,Clinic,MoH,-27.8362,26.3668,GPS,FS
Free State,Allanridge Clinic,Clinic,MoH,-27.7533,26.64478,GPS,FS
Free State,AM Kruger Clinic,Clinic,MoH,-27.873,26.68533,GPS,FS
Free State,Amelia Clinic,Clinic,MoH,NA,NA,NA,FS
Free State,Ango Maseola Marikana Clinic,Clinic,MoH,-25.675382,27.234854,GPS,FS
Free State,Bainsvlei Clinic,Clinic,MoH,-29.0645,26.12987,GPS,FS
Free State,Bakenpark Clinic,Clinic,MoH,-28.2185,28.33417,GPS,FS
Free State,Batho Clinic,Clinic,MoH,-29.1389,26.22728,GPS,FS
Free State,Bayswater Clinic,Clinic,MoH,-29.0847,26.24407,GPS,FS
Free State,Bethlehem Clinic,Clinic,MoH,-28.2327,28.30792,GPS,FS
Free State,Bethlehem Youth Clinic,Clinic,MoH,-28.233,28.308,GPS,FS
Free State,Bloemspruit Clinic,Clinic,MoH,-29.1373,26.27142,GPS,FS
Free State,Blue Gum Bush Clinic,Clinic,MoH,-28.4825,28.84905,GPS,FS
Free State,Bohlokong Clinic,Clinic,MoH,-28.2242,28.31608,GPS,FS
Free State,Boiketlo Clinic,Clinic,MoH,-28.5496,28.82607,GPS,FS
Free State,Boithusong Clinic,Clinic,MoH,-27.8552,26.76047,GPS,FS
Free State,Boitumelo Hospital,Regional Hospital,MoH,-27.644,27.213172,GPS,FS
Free State,Boitumelo Senekal Clinic,Clinic,MoH,-28.3436,27.6313,GPS,FS
Free State,Bolata Clinic,Clinic,MoH,-28.5638,28.7958,GPS,FS
Free State,Bongani Hospital,Regional Hospital,MoH,-27.9531,26.7862,GPS,FS
Free State,Bophelong Allanridge Clinic,Clinic,MoH,-27.7769,26.65688,GPS,FS
Free State,Bophelong Botshabelo Clinic,Clinic,MoH,-29.2778,26.73307,GPS,FS
Free State,Bophelong Kroonstad Clinic,Clinic,MoH,-27.6348,27.18923,GPS,FS
Free State,Bophelong Odendaalsrus Clinic,Clinic,MoH,-27.8591,26.77652,GPS,FS
Free State,Bophelong Petrusburg CHC,Community Health Centre,MoH,-29.119,25.41824,GPS,FS
Free State,Bophelong Vrede Clinic,Clinic,MoH,-27.4183,29.17362,GPS,FS
Free State,Bophelong Welkom Clinic,Clinic,MoH,-27.969,26.83533,GPS,FS
Free State,Borwa Clinic,Clinic,MoH,-29.1962,27.03003,GPS,FS
Free State,Boshof Clinic,Clinic,MoH,-28.5504,25.2516,GPS,FS
Free State,Bothaville Clinic,Clinic,MoH,-27.3925,26.61942,GPS,FS
Free State,Botshabelo Hospital,District Hospital,MoH,-29.2325,26.71572,GPS,FS
Free State,Botshabelo Industrial Clinic,Clinic,MoH,-29.2041,26.70412,GPS,FS
Free State,Brentpark Clinic,Clinic,MoH,-27.6685,27.1937,GPS,FS
Free State,Bronville Clinic,Clinic,MoH,-27.9965,26.81323,GPS,FS
Free State,Central Park Clinic,Clinic,MoH,-29.1207,26.22297,GPS,FS
Free State,Clocolan Clinic,Clinic,MoH,-28.909999,27.57423,GPS,FS
Free State,DA Maleho Clinic,Clinic,MoH,-28.2914,26.15387,GPS,FS
Free State,Daniel Ngatane Clinic,Clinic,MoH,-29.2326,26.727579,GPS,FS
Free State,Dealesville Clinic,Clinic,MoH,-28.6717,25.76528,GPS,FS
Free State,Deneysville Clinic,Clinic,MoH,-26.8911,28.09717,GPS,FS
Free State,Dewetsdorp One Stop Clinic,Clinic,MoH,-29.5852,26.66885,GPS,FS
Free State,Diamond Diamant Hospital,District Hospital,MoH,-29.7603,25.42315,GPS,FS
Free State,Dihlabeng Gateway Clinic,Clinic,MoH,-28.2332,28.3197,GPS,FS
Free State,Dihlabeng Hospital,Regional Hospital,MoH,-28.2331,28.3197,GPS,FS
Free State,Dinaane Clinic,Clinic,MoH,-29.2275,26.83132,GPS,FS
Free State,Dinkweng Clinic,Clinic,MoH,-28.6282,28.89662,GPS,FS
Free State,Dr JS Moroka Hospital,District Hospital,MoH,-29.2045,26.83468,GPS,FS
Free State,Dr Pedro Memorial Clinic,Clinic,MoH,-29.2079,26.68177,GPS,FS
Free State,Duke Street Clinic,Clinic,MoH,-28.6973,26.4638,GPS,FS
Free State,Elizabeth Ross Hospital,District Hospital,MoH,-28.589,28.81755,GPS,FS
Free State,Elrich Park Clinic,Clinic,MoH,-29.1521,26.212835,GPS,FS
Free State,Embekweni Hospital,District Hospital,MoH,-30.2921,27.07542,GPS,FS
Free State,Ethembeni Clinic,Clinic,MoH,-29.3933,24.99175,GPS,FS
Free State,Eva Mota Clinic,Clinic,MoH,-28.6334,28.86838,GPS,FS
Free State,Excelsior Clinic,Clinic,MoH,-28.9329,27.0566,GPS,FS
Free State,Fateng Tse Ntsho Clinic,Clinic,MoH,-28.299,27.96736,GPS,FS
Free State,Fauna Clinic,Clinic,MoH,-29.1655,26.18987,GPS,FS
Free State,Fauresmith Clinic,Clinic,MoH,-29.7446,25.30937,GPS,FS
Free State,Fezi Ngumbentombi Hospital,District Hospital,MoH,-26.8014,27.82757,GPS,FS
Free State,Fichardtpark Clinic,Clinic,MoH,-29.1438,26.1818,GPS,FS
Free State,Flora Clinic,Clinic,MoH,-30.593,25.49487,GPS,FS
Free State,Frankfort Clinic,Clinic,MoH,-27.2777,28.49248,GPS,FS
Free State,Freedom Square Clinic,Clinic,MoH,-29.1738,26.25365,GPS,FS
Free State,Gabriel Dichabe Clinic,Clinic,MoH,-29.1147,26.21535,GPS,FS
Free State,Gaongalelwe Clinic,Clinic,MoH,-29.1683,26.80102,GPS,FS
Free State,Geneva Clinic,Clinic,MoH,-27.8552,26.75535,GPS,FS
Free State,Hani Park Clinic,Clinic,MoH,-27.9871,26.82359,GPS,FS
Free State,Harrismith Clinic,Clinic,MoH,-28.2726,29.12667,GPS,FS
Free State,Harry Gwala Botshabelo Clinic,Clinic,MoH,-29.2876,26.71105,GPS,FS
Free State,Harry Gwala Sasolburg Clinic,Clinic,MoH,-26.85,27.87897,GPS,FS
Free State,Heidedal CHC,Community Health Centre,MoH,-29.1416,26.24637,GPS,FS
Free State,Heidedal Clinic,Clinic,MoH,-29.142,26.246,GPS,FS
Free State,Heilbron Clinic,Clinic,MoH,-27.2903,27.9681,GPS,FS
Free State,Heilbron PHC Inside Clinic,Clinic,MoH,-27.29,27.968,GPS,FS
Free State,Helpmekaar Satellite Clinic,Satellite Clinic,MoH,-27.75143,26.1151,GPS,FS
Free State,Hennenman Clinic,Clinic,MoH,-27.9724,27.01997,GPS,FS
Free State,Highway Junction Clinic,Clinic,MoH,-28.2885,29.13155,GPS,FS
Free State,Hill Street Clinic,Clinic,MoH,-27.6631,27.24027,GPS,FS
Free State,Hilton Clinic,Clinic,MoH,-29.1073,26.23833,GPS,FS
Free State,Hlohlolwane Clinic,Clinic,MoH,-28.9119,27.55222,GPS,FS
Free State,Hobhouse Clinic,Clinic,MoH,-29.5214,27.14745,GPS,FS
Free State,Hoopstad Clinic,Clinic,MoH,-27.8323,25.91473,GPS,FS
Free State,Hope CHC,Community Health Centre,MoH,-28.0817,27.14397,GPS,FS
Free State,Hostel nr 1 Clinic,Clinic,MoH,-29.1341,26.23828,GPS,FS
Free State,Hydropark Clinic,Clinic,MoH,-30.593,25.494,GPS,FS
Free State,Ikaheng Clinic,Clinic,MoH,-29.1681,27.45985,GPS,FS
Free State,Ikgomotseng Clinic,Clinic,MoH,-28.7361,26.10485,GPS,FS
Free State,Intabazwe Clinic,Clinic,MoH,-28.2529,29.09673,GPS,FS
Free State,Itemoheng Hospital,District Hospital,MoH,-28.3274,27.60552,GPS,FS
Free State,Itumeleng Botshabelo Clinic,Clinic,MoH,-29.2854,26.71965,GPS,FS
Free State,Itumeleng Clarens Clinic,Clinic,MoH,-28.5225,28.42125,GPS,FS
Free State,Itumeleng Jagersfontein Clinic,Clinic,MoH,-29.7669,25.43485,GPS,FS
Free State,Jacobsdal Clinic,Clinic,MoH,-29.1299,24.77157,GPS,FS
Free State,Jazzman Mokhothu Clinic,Clinic,MoH,-29.2572,26.7139,GPS,FS
Free State,John Daniel Newberry Hospital,District Hospital,MoH,-28.91,27.57423,GPS,FS
Free State,Kagisanong Clinic,Clinic,MoH,-29.1962,26.24503,GPS,FS
Free State,Kamohelo Clinic,Clinic,MoH,-28.5311,27.00165,GPS,FS
Free State,Kananelo CHC,Community Health Centre,MoH,-27.0047,27.36813,GPS,FS
Free State,Katleho Hospital,District Hospital,MoH,-28.1105,26.85798,GPS,FS
Free State,Kgalala Clinic,Clinic,MoH,-28.9888,26.80427,GPS,FS
Free State,Kganya CHC,Community Health Centre,MoH,-27.2342,27.58748,GPS,FS
Free State,Kgotso Clinic,Clinic,MoH,-27.5553,27.66367,GPS,FS
Free State,Kgotsong Bothaville Clinic,Clinic,MoH,-27.3902,26.64423,GPS,FS
Free State,Khosatsana Masetjhaba Clinic,Clinic,MoH,NA,NA,NA,FS
Free State,Khotalong Clinic,Clinic,MoH,-28.1318,26.90292,GPS,FS
Free State,Klipfontein Clinic,Clinic,MoH,-29.5228,26.98295,GPS,FS
Free State,K-Maile Clinic,Clinic,MoH,-27.3839,26.65739,GPS,FS
Free State,Kokelong Clinic,Clinic,MoH,-28.678,27.41432,GPS,FS
Free State,Kopano CHC,Community Health Centre,MoH,-27.983,26.728,GPS,FS
Free State,Kopanong Clinic,Clinic,MoH,-28.3312,28.69812,GPS,FS
Free State,Ladybrand Clinic,Clinic,MoH,-29.191,27.45902,GPS,FS
Free State,Langenhovenpark Clinic,Clinic,MoH,-29.0978,26.15587,GPS,FS
Free State,Lebohang Clinic,Clinic,MoH,-29.7205,27.02715,GPS,FS
Free State,Lephoi Clinic,Clinic,MoH,-30.4978,25.97982,GPS,FS
Free State,Leratong Clinic,Clinic,MoH,-27.7808,26.65683,GPS,FS
Free State,Leratswana Clinic,Clinic,MoH,-28.0277,27.84397,GPS,FS
Free State,Lesedi CHC,Community Health Centre,MoH,-27.6409,27.19232,GPS,FS
Free State,Lesedi Clinic,Clinic,MoH,-28.2479,29.10542,GPS,FS
Free State,Leseding Clinic,Clinic,MoH,-27.8815,27.90737,GPS,FS
Free State,Lindley Clinic,Clinic,MoH,-27.8813,27.91588,GPS,FS
Free State,Lourierpark Clinic,Clinic,MoH,-29.1778,26.17435,GPS,FS
Free State,Luckhoff Clinic,Clinic,MoH,-29.7499,24.78632,GPS,FS
Free State,Lusaka Clinic,Clinic,MoH,-28.4166,26.69797,GPS,FS
Free State,Mafane Clinic,Clinic,MoH,-29.1989,26.81338,GPS,FS
Free State,Mafube Hospital,District Hospital,MoH,-27.2788,28.50023,GPS,FS
Free State,Ma-haig Clinic,Clinic,MoH,-28.5193,28.80137,GPS,FS
Free State,Makeneng Clinic,Clinic,MoH,-28.6144,28.82157,GPS,FS
Free State,Makhalaneng Clinic,Clinic,MoH,-28.5508,28.79135,GPS,FS
Free State,Makoane Clinic,Clinic,MoH,-28.5346,28.8882,GPS,FS
Free State,Malesaona Clinic,Clinic,MoH,-28.5585,28.72104,GPS,FS
Free State,Maletsatsi Mabaso Clinic,Clinic,MoH,-29.2547,26.73198,GPS,FS
Free State,Mamello CHC,Community Health Centre,MoH,-28.6668,27.42652,GPS,FS
Free State,Mamello Clinic,Clinic,MoH,-30.0341,25.78073,GPS,FS
Free State,Manyatseng Clinic,Clinic,MoH,-29.1724,27.4656,GPS,FS
Free State,Marakong Clinic,Clinic,MoH,-28.5652,28.84707,GPS,FS
Free State,Marantha Clinic,Clinic,MoH,-28.6907,26.46281,GPS,FS
Free State,Masebabatso Clinic,Clinic,MoH,-28.9043,27.88332,GPS,FS
Free State,Masilo Clinic,Clinic,MoH,-28.4098,26.70712,GPS,FS
Free State,Matjhabeng Clinic,Clinic,MoH,-27.9673,26.79838,GPS,FS
Free State,Matlakeng Clinic,Clinic,MoH,-30.296,27.09437,GPS,FS
Free State,Matlakeng Hospital,District Hospital,MoH,-30.296773,27.100411,GPS,FS
Free State,Matsieng Clinic,Clinic,MoH,-28.6015,28.80095,GPS,FS
Free State,Matwabeng Clinic,Clinic,MoH,-28.3443,27.6287,GPS,FS
Free State,Mauersnek Clinic,Clinic,MoH,-29.1903,27.43953,GPS,FS
Free State,MCDC Clinic,Clinic,MoH,-29.1753,26.21987,GPS,FS
Free State,Meloding Clinic,Clinic,MoH,-28.1299,26.89767,GPS,FS
Free State,Memel Clinic,Clinic,MoH,-27.6778,29.564244,GPS,FS
Free State,Meqheleng Clinic,Clinic,MoH,-28.8898,27.87712,GPS,FS
Free State,Metsimaholo Clinic,Clinic,MoH,-26.9791,28.21113,GPS,FS
Free State,Mmabana Clinic,Clinic,MoH,-29.1507,26.24172,GPS,FS
Free State,Mmamahabane Clinic,Clinic,MoH,-28.0917,27.14768,GPS,FS
Free State,Mofumahadi Manapo Mopeli Hospital,Regional Hospital,MoH,-28.537,28.80507,GPS,FS
Free State,Mohau Hospital,District Hospital,MoH,-27.8323,25.91538,GPS,FS
Free State,Mokwena Clinic,Clinic,MoH,-29.1939,26.84069,GPS,FS
Free State,Molefi Tau Clinic,Clinic,MoH,-29.2109,26.71927,GPS,FS
Free State,Monontsha Clinic,Clinic,MoH,-28.5656,28.7449,GPS,FS
Free State,Monument Clinic,Clinic,MoH,-29.1327,26.21882,GPS,FS
Free State,Mphatlalatsane Clinic,Clinic,MoH,-28.5093,28.83678,GPS,FS
Free State,Mphohadi Clinic,Clinic,MoH,-28.1977,28.32575,GPS,FS
Free State,MUCPP CHC,Community Health Centre,MoH,-29.1792,26.24293,GPS,FS
Free State,Nala Hospital,District Hospital,MoH,-27.3946,26.61783,GPS,FS
Free State,Namahali Clinic,Clinic,MoH,-28.5836,28.82963,GPS,FS
Free State,National District Hospital,District Hospital,MoH,-29.127,26.2064,GPS,FS
Free State,National District Hospital Gateway Clinic,Clinic,MoH,-29.1281,26.20703,GPS,FS
Free State,Nelson Mandela Clinic,Clinic,MoH,-29.731,25.94157,GPS,FS
Free State,Nketoana Hospital,District Hospital,MoH,-27.8028,28.41893,GPS,FS
Free State,Noorderbloem Clinic,Clinic,MoH,-29.15,26.25,GPS,FS
Free State,Nothnagel Clinic,Clinic,MoH,-28.6765,27.42015,GPS,FS
Free State,Nthabiseng Clinic,Clinic,MoH,-28.5908,28.78217,GPS,FS
Free State,Opkoms Clinic,Clinic,MoH,-29.1445,26.25227,GPS,FS
Free State,Oppermansgronde Clinic,Clinic,MoH,-29.4135,24.74483,GPS,FS
Free State,OR Tambo Clinic,Clinic,MoH,-28.1496,26.88734,GPS,FS
Free State,OR Tambo Senekal Clinic,Clinic,MoH,-28.325746,27.613496,GPS,FS
Free State,Paballong Clinic,Clinic,MoH,-28.5552,28.77695,GPS,FS
Free State,Parys Clinic,Clinic,MoH,-26.8993,27.45715,GPS,FS
Free State,Parys Hospital,District Hospital,MoH,-26.8959,27.47207,GPS,FS
Free State,Paul Roux Clinic,Clinic,MoH,-28.296,27.95555,GPS,FS
Free State,PAX CHC,Community Health Centre,MoH,-27.1989,26.94977,GPS,FS
Free State,Pelonomi Hospital,Provincial Tertiary Hospital,MoH,-29.1413,26.24572,GPS,FS
Free State,Petsana Clinic,Clinic,MoH,-27.804,28.44652,GPS,FS
Free State,Phahameng Bultfontein Clinic,Clinic,MoH,-28.3007,26.14848,GPS,FS
Free State,Phahameng Frankfort Clinic,Clinic,MoH,-27.2549,28.51312,GPS,FS
Free State,Phedisanang Clinic,Clinic,MoH,-27.8565,26.77053,GPS,FS
Free State,Phedisong Clinic,Clinic,MoH,-27.0212,28.62755,GPS,FS
Free State,Phekolong Cornelia Clinic,Clinic,MoH,-27.2285,28.85073,GPS,FS
Free State,Phekolong Hospital,District Hospital,MoH,-28.2176,28.32645,GPS,FS
Free State,Phekolong Reddersburg Clinic,Clinic,MoH,-29.6528,26.16647,GPS,FS
Free State,Phetogo Clinic,Clinic,MoH,-29.3677,26.8368,GPS,FS
Free State,Philani Clinic,Clinic,MoH,-27.2679,28.5048,GPS,FS
Free State,Philippolis Clinic,Clinic,MoH,-30.2663,25.27514,GPS,FS
Free State,Phomolong Ficksburg Clinic,Clinic,MoH,-28.8943,27.88183,GPS,FS
Free State,Phomolong Hennenman Clinic,Clinic,MoH,-28.014,27.08118,GPS,FS
Free State,Phumelela Hospital,District Hospital,MoH,-27.4335,29.15583,GPS,FS
Free State,Phuthaditjhaba Clinic,Clinic,MoH,-28.5201,28.82062,GPS,FS
Free State,Phuthuloha Hospital,District Hospital,MoH,-28.8813,27.87202,GPS,FS
Free State,Poly Clinic,Clinic,MoH,-29.133799,26.239123,GPS,FS
Free State,Potlako Motlohi Clinic,Clinic,MoH,-29.2716,26.72317,GPS,FS
Free State,Pule Sefatsa Clinic,Clinic,MoH,-29.2614,26.69123,GPS,FS
Free State,Qalabotjha Clinic,Clinic,MoH,-27.0204,28.62502,GPS,FS
Free State,Qholaqhwe Clinic,Clinic,MoH,-28.5228,28.85508,GPS,FS
Free State,Rainbow Clinic,Clinic,MoH,-27.5534,28.51323,GPS,FS
Free State,Rammulotsi Clinic,Clinic,MoH,-27.1949,26.95373,GPS,FS
Free State,Rearabetsoe Virginia Clinic,Clinic,MoH,-28.0624,26.86415,GPS,FS
Free State,Rearabetswe Clinic,Clinic,MoH,-27.6541,28.12848,GPS,FS
Free State,Refengkgotso Clinic,Clinic,MoH,-26.8934,28.07162,GPS,FS
Free State,Reitumetse Clinic,Clinic,MoH,-28.6206,28.19552,GPS,FS
Free State,Reitz Clinic,Clinic,MoH,-27.803,28.41965,GPS,FS
Free State,Relebohile Heilbron Clinic,Clinic,MoH,-27.2717,27.97537,GPS,FS
Free State,Relebohile Rosendal Clinic,Clinic,MoH,-28.5084,27.92272,GPS,FS
Free State,Relebohile Vredefort Clinic,Clinic,MoH,-27.0021,27.37608,GPS,FS
Free State,Rheederspark Clinic,Clinic,MoH,-27.9545,26.72002,GPS,FS
Free State,Riebeeckstad Clinic,Clinic,MoH,-27.9335,26.81187,GPS,FS
Free State,Riverside Clinic,Clinic,MoH,-28.5437,28.81295,GPS,FS
Free State,Sandersville Clinic,Clinic,MoH,-27.2747,27.96498,GPS,FS
Free State,SANDF Clinic,Clinic,MoH,-29.091,26.189458,GPS,FS
Free State,Sasolburg Clinic,Clinic,MoH,-26.8179,27.8277,GPS,FS
Free State,Schonkenville Clinic,Clinic,MoH,-26.9332,27.46278,GPS,FS
Free State,Seadimo Clinic,Clinic,MoH,-29.1004,26.9845,GPS,FS
Free State,Sediba Clinic,Clinic,MoH,-29.0289,26.94302,GPS,FS
Free State,Sedibeng sa Bophelo Clinic,Clinic,MoH,-27.9455,27.55407,GPS,FS
Free State,Seeisoville Clinic,Clinic,MoH,-27.6541,27.21023,GPS,FS
Free State,Sehularo Tau Clinic,Clinic,MoH,-30.2591,25.70734,GPS,FS
Free State,Sekamotho Mota Clinic,Clinic,MoH,-28.6487,28.85232,GPS,FS
Free State,Senekal Clinic,Clinic,MoH,-28.3279,27.60572,GPS,FS
Free State,Senekal Farms Clinic,Clinic,MoH,-28.325,27.61,GPS,FS
Free State,Senorita Ntlabathi Hospital,District Hospital,MoH,-29.2029,27.44807,GPS,FS
Free State,Sizabantu Clinic,Clinic,MoH,-27.2661,27.97763,GPS,FS
Free State,Soetwater Clinic,Clinic,MoH,-28.8748,27.87588,GPS,FS
Free State,Stoffel Coetzee Hospital,District Hospital,MoH,-30.2177,26.52442,GPS,FS
Free State,Tebang Clinic,Clinic,MoH,-28.526,28.87238,GPS,FS
Free State,Thaba Bosiu Clinic,Clinic,MoH,-28.5982,28.88368,GPS,FS
Free State,Thaba Nchu Clinic,Clinic,MoH,-29.218,26.84782,GPS,FS
Free State,Thaba Phatswa Clinic,Clinic,MoH,-29.3128,27.12485,GPS,FS
Free State,Thabang Clinic,Clinic,MoH,-28.6094,28.83058,GPS,FS
Free State,Thabong Clinic,Clinic,MoH,-27.964,26.79163,GPS,FS
Free State,Thambo Container Clinic,Clinic,MoH,-28.4,27.5,GPS,FS
Free State,Thebe Hospital,District Hospital,MoH,-28.2722,29.13805,GPS,FS
Free State,Thembalethu Clinic,Clinic,MoH,-30.214,26.53563,GPS,FS
Free State,Thusa Bophelo Clinic,Clinic,MoH,-27.8363,28.97803,GPS,FS
Free State,Thusanang Sasolburg Clinic,Clinic,MoH,-26.8449,27.8645,GPS,FS
Free State,Thusanong Hospital,District Hospital,MoH,-27.8773,26.65922,GPS,FS
Free State,Thusanong Kroonstad Clinic,Clinic,MoH,-27.6487,27.19015,GPS,FS
Free State,Thusanong Parys Clinic,Clinic,MoH,-26.9201,27.48483,GPS,FS
Free State,Thusong Clinic,Clinic,MoH,-29.1847,26.23462,GPS,FS
Free State,Tiger River Clinic,Clinic,MoH,-29.1204,26.78943,GPS,FS
Free State,Tina Moloi Clinic,Clinic,MoH,-28.6097,28.85632,GPS,FS
Free State,Tokollo Hospital,District Hospital,MoH,-27.2891,27.96168,GPS,FS
Free State,TS Mahloko Clinic,Clinic,MoH,-29.243,26.71661,GPS,FS
Free State,Tsatsi SPS Clinic,Clinic,MoH,-26.8444,27.85574,GPS,FS
Free State,Tseki Clinic,Clinic,MoH,-28.5858,28.77227,GPS,FS
Free State,Tshepo Themba Clinic,Clinic,MoH,-26.349604,28.202304,GPS,FS
Free State,Tshepong Kroonstad Clinic,Clinic,MoH,-27.6388,27.17403,GPS,FS
Free State,Tshepong Verkeerdevlei Clinic,Clinic,MoH,-28.8401,26.76212,GPS,FS
Free State,Tshepong Welkom Clinic,Clinic,MoH,-27.9577,26.83607,GPS,FS
Free State,Tshiame A Clinic,Clinic,MoH,-28.32,28.99,GPS,FS
Free State,Tshiame B Clinic,Clinic,MoH,-28.3243,28.99467,GPS,FS
Free State,Tshirela Clinic,Clinic,MoH,-28.6228,28.80455,GPS,FS
Free State,Tshwaraganang Dealesville Clinic,Clinic,MoH,-28.6579,25.77142,GPS,FS
Free State,Tshwaraganang Hertzogville Clinic,Clinic,MoH,-28.123,25.49985,GPS,FS
Free State,Tumahole Clinic,Clinic,MoH,-26.9162,27.46773,GPS,FS
Free State,Tweefontein Clinic,Clinic,MoH,-29.3701,26.92562,GPS,FS
Free State,Tweespruit Clinic,Clinic,MoH,-29.1875,27.02543,GPS,FS
Free State,Universitas C Hospital,National Central Hospital,MoH,-29.118,26.18432,GPS,FS
Free State,Vaal Rock Clinic,Clinic,MoH,-28.6815,26.46135,GPS,FS
Free State,Vaalpark Clinic,Clinic,MoH,-26.773,27.839,GPS,FS
Free State,Vanstadensrus Clinic,Clinic,MoH,-29.9852,27.0136,GPS,FS
Free State,Villiers Clinic,Clinic,MoH,-27.029,28.59788,GPS,FS
Free State,Virginia Clinic,Clinic,MoH,-28.1076,26.86413,GPS,FS
Free State,Vivian Mangwane Clinic,Clinic,MoH,-26.911463,27.490696,GPS,FS
Free State,Vrede Clinic,Clinic,MoH,-27.4343,29.15528,GPS,FS
Free State,Welkom Clinic,Clinic,MoH,-27.9854,26.7414,GPS,FS
Free State,Westdene Clinic,Clinic,MoH,-29.1027,26.20763,GPS,FS
Free State,Wilgehof Clinic,Clinic,MoH,-29.1276,26.191187,GPS,FS
Free State,Winburg Clinic,Clinic,MoH,-28.5186,27.01312,GPS,FS
Free State,Winburg Hospital,District Hospital,MoH,-28.5098,27.00802,GPS,FS
Free State,Winnie Mandela Botshabelo Clinic,Clinic,MoH,-29.2182,26.70333,GPS,FS
Free State,Winnie Mandela Rouxville Clinic,Clinic,MoH,-30.4077,26.83088,GPS,FS
Free State,Zamani Clinic,Clinic,MoH,-27.6687,29.56125,GPS,FS
Free State,Zamdela CHC,Community Health Centre,MoH,-26.8421,27.84672,GPS,FS
Gauteng,17 Esselen Street Clinic,Clinic,Local authority,-26.191,28.045,GPS,GP
Gauteng,4th Avenue Clinic,Clinic,MoH,-26.1052,28.0908,GPS,GP
Gauteng,80 Albert Street Clinic,Clinic,MoH,-26.2077,28.04962,GPS,GP
Gauteng,Adelaide Tambo Clinic,Clinic,MoH,-25.5819,28.23326,GPS,GP
Gauteng,Akasia Refugee Shelter Clinic,Clinic,MoH,-25.6381,28.123272,GPS,GP
Gauteng,Albertina Sisulu Clinic,Clinic,Local authority,-26.5769,27.84864,GPS,GP
Gauteng,Alberton North Clinic,Clinic,Local authority,-26.2596,28.12863,GPS,GP
Gauteng,Alexandra 8th Avenue Clinic,Clinic,Local authority,-26.1095,28.09588,GPS,GP
Gauteng,Alexandra CHC,Community Health Centre,Local authority,-26.1164,28.08844,GPS,GP
Gauteng,Alexandra East Bank Clinic,Clinic,Local authority,-26.1067,28.10999,GPS,GP
Gauteng,Alra Park Clinic,Clinic,Local authority,-26.4327,28.50831,GPS,GP
Gauteng,Alra Park Ext 3 Clinic,Clinic,Local authority,-26.446,28.512746,GPS,GP
Gauteng,Andries Raditsela Clinic,Clinic,MoH,-26.3343,28.38866,GPS,GP
Gauteng,Atteridgeville Clinic,Clinic,Local authority,-25.7686,28.07841,GPS,GP
Gauteng,Azaadville Clinic,Clinic,Local authority,-26.1709,27.75829,GPS,GP
Gauteng,Badirile Clinic,Clinic,Local authority,-26.1302,27.59278,GPS,GP
Gauteng,Bakerton Health Post,Health Post,Local authority,-26.2263,28.469107,GPS,GP
Gauteng,Bapsfontein Clinic,Clinic,Local authority,-26.0028,28.41353,GPS,GP
Gauteng,Barcelona Clinic,Clinic,Local authority,-26.1091,28.45219,GPS,GP
Gauteng,Barney Molokoane Clinic,Clinic,MoH,-26.4924,27.87908,GPS,GP
Gauteng,Bedfordview Clinic,Clinic,Local authority,-26.1793,28.13449,GPS,GP
Gauteng,Bekkersdal East Clinic,Clinic,Local authority,-26.2834,27.70399,GPS,GP
Gauteng,Bekkersdal West CHC,Community Health Centre,Local authority,-26.2861,27.6974,GPS,GP
Gauteng,Bellavista Clinic,Clinic,Local authority,-26.2557,28.0293,GPS,GP
Gauteng,Berario Clinic,Clinic,Local authority,-26.1356,27.95284,GPS,GP
Gauteng,Berea Clinic,Clinic,Local authority,-26.1879,28.055,GPS,GP
Gauteng,Bertha Gxowa Clinic,Clinic,MoH,-26.2213,28.162803,GPS,GP
Gauteng,Bertha Gxowa Hospital,District Hospital,MoH,-26.2197,28.16305,GPS,GP
Gauteng,Beverly Hills Clinic,Clinic,Local authority,-26.5424,27.82381,GPS,GP
Gauteng,Bezvalley Clinic,Clinic,Local authority,-26.1866,28.08827,GPS,GP
Gauteng,Bheki Mlangeni District Hospital,District Hospital,MoH,-26.2478,27.856929,GPS,GP
Gauteng,Birchleigh Clinic,Clinic,Local authority,-26.0674,28.22855,GPS,GP
Gauteng,Birchleigh North Clinic,Clinic,Local authority,-26.0523,28.23019,GPS,GP
Gauteng,Blybank Clinic,Clinic,MoH,-26.338,27.474763,GPS,GP
Gauteng,Blyvooruitsig Clinic,Clinic,Local authority,-26.4003,27.374396,GPS,GP
Gauteng,Bobby Satellite Clinic,Satellite Clinic,MoH,-26.3353,27.9874,GPS,GP
Gauteng,Boekenhout Clinic,Clinic,MoH,-25.5058,28.06483,GPS,GP
Gauteng,Boikhutsong Clinic,Clinic,MoH,-25.4483,28.1125,GPS,GP
Gauteng,Boipatong CHC,Community Health Centre,Local authority,-26.6721,27.84787,GPS,GP
Gauteng,Boitumelo Clinic,Clinic,MoH,-26.5623,27.82432,GPS,GP
Gauteng,Boksburg Civic Centre Clinic,Clinic,Local authority,-26.221800000000002,28.2521,GPS,GP
Gauteng,Boksburg North Clinic,Clinic,Local authority,-26.2092,28.25315,GPS,GP
Gauteng,Bonaero Park Clinic,Clinic,Local authority,-26.1212,28.25633,GPS,GP
Gauteng,Bophelong Clinic Johannesburg A,Clinic,Local authority,-26.0046,28.19053,GPS,GP
Gauteng,Bophelong Clinic Johannesburg C,Clinic,Local authority,-26.2441,27.80778,GPS,GP
Gauteng,Bophelong Clinic Tshwane 3,Clinic,MoH,-25.7719,28.0534,GPS,GP
Gauteng,Bosmont Clinic,Clinic,Local authority,-26.1895,27.95869,GPS,GP
Gauteng,Brackenhurst Clinic,Clinic,Local authority,-26.3139,28.097,GPS,GP
Gauteng,Bronkhorstspruit Clinic,Clinic,MoH,-25.8096,28.74356,GPS,GP
Gauteng,Bronkhorstspruit Hospital,District Hospital,MoH,-25.8033,28.716892,GPS,GP
Gauteng,Calcot Dhlephu Clinic,Clinic,Local authority,-26.3767,28.378153,GPS,GP
Gauteng,Carletonville Central Clinic,Clinic,Local authority,-26.3578,27.397922,GPS,GP
Gauteng,Carletonville Hospital,District Hospital,MoH,-26.347,27.39446,GPS,GP
Gauteng,Charlotte Maxeke Hospital,National Central Hospital,MoH,-26.174,28.04691,GPS,GP
Gauteng,Chiawelo CHC,Community Health Centre,MoH,-26.279,27.86479,GPS,GP
Gauteng,Chiawelo LA Clinic,Clinic,Local authority,-26.2791,27.86479,GPS,GP
Gauteng,Chief Albert Luthuli Clinic,Clinic,Local authority,-26.1543,28.38186,GPS,GP
Gauteng,Chris Hani Baragwanath Hospital,National Central Hospital,MoH,-26.26,27.93799,GPS,GP
Gauteng,Claremont Clinic,Clinic,Local authority,-26.1774,27.95632,GPS,GP
Gauteng,Cosmo City Clinic,Clinic,MoH,-26.0205,27.929695,GPS,GP
Gauteng,Crosby Clinic,Clinic,Local authority,-26.1924,27.9899,GPS,GP
Gauteng,Crown Gardens Clinic,Clinic,Local authority,-26.249,28.00462,GPS,GP
Gauteng,Crystal Park Clinic,Clinic,Local authority,-26.1361,28.37031,GPS,GP
Gauteng,Dan Kubheka Clinic,Clinic,Local authority,-26.1874,28.39451,GPS,GP
Gauteng,Danville Clinic,Clinic,Local authority,-25.7477,28.13359,GPS,GP
Gauteng,Dark City CHC,Community Health Centre,MoH,-25.675,28.72655,GPS,GP
Gauteng,Daspoort Poli Clinic,Clinic,MoH,-25.7136,28.13237,GPS,GP
Gauteng,Daveyton East Clinic,Clinic,Local authority,-26.1343,28.44056,GPS,GP
Gauteng,Daveyton Ext Clinic,Clinic,Local authority,-26.1287,28.4489,GPS,GP
Gauteng,Davidsonville Clinic,Clinic,Local authority,-26.1546,27.84892,GPS,GP
Gauteng,Dawn Park Clinic,Clinic,Local authority,-26.307,28.2571,GPS,GP
Gauteng,De Wagensdrift Clinic,Clinic,MoH,-25.5142,28.52835,GPS,GP
Gauteng,Deelkraal Clinic,Clinic,MoH,-26.459,27.325326,GPS,GP
Gauteng,Diepkloof LA Clinic,Clinic,Local authority,-26.2373,27.94625,GPS,GP
Gauteng,Diepkloof Prov Clinic,Clinic,MoH,-26.2407,27.94729,GPS,GP
Gauteng,Diepsloot South Clinic,Clinic,Local authority,-25.9216,28.01499,GPS,GP
Gauteng,Dilopye Clinic,Clinic,MoH,-25.3829,28.19353,GPS,GP
Gauteng,Dinwiddie Satellite Clinic,Satellite Clinic,Local authority,-26.263,28.16495,GPS,GP
Gauteng,Discoverers CHC,Community Health Centre,MoH,-26.1658,27.89417,GPS,GP
Gauteng,DMA Kromdraai Clinic,Clinic,MoH,-25.9882,27.78312,GPS,GP
Gauteng,Doornpoort Clinic,Clinic,Local authority,-25.6559,28.25141,GPS,GP
Gauteng,Dr George Mukhari Hospital,National Central Hospital,MoH,-25.619,28.01216,GPS,GP
Gauteng,Dr Helga Kuhn Clinic,Clinic,MoH,-26.4972,27.83708,GPS,GP
Gauteng,Dr Ramirez Martinez Clinic,Clinic,Local authority,-26.0731,27.75231,GPS,GP
Gauteng,Dr Yusuf Dadoo Gateway Clinic,Clinic,MoH,-26.099598999999998,27.78386,GPS,GP
Gauteng,Dr Yusuf Dadoo Hospital,District Hospital,MoH,-26.0996,27.78386,GPS,GP
Gauteng,Dresser Clinic,Clinic,Local authority,-26.3548,28.13615,GPS,GP
Gauteng,Driehoek Clinic,Clinic,Local authority,-26.726,27.8462,GPS,GP
Gauteng,Duduza Clinic,Clinic,Local authority,-26.375,28.414236,GPS,GP
Gauteng,Dukathole Clinic,Clinic,Local authority,-26.2257,28.19057,GPS,GP
Gauteng,East Lynne Clinic,Clinic,Local authority,-25.7051,28.2846,GPS,GP
Gauteng,Ebony Park Kaalfontein Clinic,Clinic,Local authority,-25.9938,28.179526,GPS,GP
Gauteng,Eden Park Clinic,Clinic,Local authority,-26.3766,28.126307,GPS,GP
Gauteng,Edenvale Clinic,Clinic,Local authority,-26.1368,28.14914,GPS,GP
Gauteng,Edenvale Hospital,Regional Hospital,MoH,-26.1283,28.129419,GPS,GP
Gauteng,Edleen Clinic,Clinic,Local authority,-26.0971,28.206776,GPS,GP
Gauteng,Eersterust CHC,Community Health Centre,MoH,-25.7069,28.30944,GPS,GP
Gauteng,Eikenhof LA Clinic,Clinic,Local authority,-26.3343,27.9874,GPS,GP
Gauteng,Eikenhof Prov Clinic,Clinic,MoH,-26.3333,27.98693,GPS,GP
Gauteng,Ekangala Clinic,Clinic,MoH,-25.6974,28.752208,GPS,GP
Gauteng,Elandsfontein Clinic,Clinic,Local authority,-26.1666,27.64907,GPS,GP
Gauteng,Eldorado Park Ext 2 Clinic,Clinic,Local authority,-26.2892,27.9211,GPS,GP
Gauteng,Eldorado Park Ext 7 Clinic,Clinic,Local authority,-26.2874,27.8955,GPS,GP
Gauteng,Eldorado Park Ext 9 Clinic,Clinic,Local authority,-26.2998,27.88961,GPS,GP
Gauteng,Eldoraigne Clinic,Clinic,Local authority,-25.8359,28.14881,GPS,GP
Gauteng,Elias Motsoaledi Clinic,Clinic,Local authority,-26.2184,27.91531,GPS,GP
Gauteng,Elsburg Clinic,Clinic,Local authority,-26.2449,28.20003,GPS,GP
Gauteng,Emaphupheni Clinic,Clinic,Local authority,-26.1074,28.48032,GPS,GP
Gauteng,Endayeni Clinic,Clinic,Local authority,-26.0195,28.19123,GPS,GP
Gauteng,Ennerdale Ext 8 Clinic,Clinic,Local authority,-26.4131,27.81714,GPS,GP
Gauteng,Ennerdale Ext 9 Clinic,Clinic,MoH,-26.4031,27.83061,GPS,GP
Gauteng,Eric Ndeleni Clinic,Clinic,Local authority,-26.195,27.7684,GPS,GP
Gauteng,Erin Clinic,Clinic,Local authority,-25.9943,28.22346,GPS,GP
Gauteng,Esangweni CHC,Community Health Centre,Local authority,-26.0222,28.2009,GPS,GP
Gauteng,Ethafeni Clinic,Clinic,Local authority,-26.0239,28.21461,GPS,GP
Gauteng,Eureka Health Post,Health Post,MoH,-26.6689,27.918164,GPS,GP
Gauteng,Evaton Main Clinic,Clinic,Local authority,-26.5315,27.8658,GPS,GP
Gauteng,Eyethu Yarona Clinic,Clinic,MoH,-25.9914,27.927375,GPS,GP
Gauteng,Fanyana Nhlapo Clinic,Clinic,Local authority,-26.1522,27.78694,GPS,GP
Gauteng,Far East Rand Hospital,Regional Hospital,MoH,-26.2354,28.40367,GPS,GP
Gauteng,FF Ribeiro Clinic,Clinic,Local authority,-25.745,28.19489,GPS,GP
Gauteng,Finetown Clinic,Clinic,MoH,-26.4125,27.86146,GPS,GP
Gauteng,First Avenue Clinic,Clinic,Local authority,-26.2506,28.44563,GPS,GP
Gauteng,Florida Clinic,Clinic,Local authority,-26.1706,27.91278,GPS,GP
Gauteng,Fochville Clinic,Clinic,MoH,-26.4866,27.49056,GPS,GP
Gauteng,Folang Clinic,Clinic,Local authority,-25.7497,28.174,GPS,GP
Gauteng,Freedom Park Clinic,Clinic,Local authority,-26.2939,27.932366,GPS,GP
Gauteng,Freeway Park Satellite Clinic,Satellite Clinic,Local authority,-26.2568,28.24222,GPS,GP
Gauteng,Garankuwa View Clinic,Clinic,MoH,-25.5482,27.982064,GPS,GP
Gauteng,Gazankulu Clinic,Clinic,Local authority,-25.7808,28.05619,GPS,GP
Gauteng,Geluksdal Clinic,Clinic,Local authority,-26.3418,28.36153,GPS,GP
Gauteng,Germiston City Clinic,Clinic,Local authority,-26.2172,28.16421,GPS,GP
Gauteng,Glenanda Clinic,Clinic,Local authority,-26.2714,28.03856,GPS,GP
Gauteng,Glenhavie Clinic,Clinic,Local authority,-26.3899,27.61567,GPS,GP
Gauteng,Goba Clinic,Clinic,Local authority,-26.3426,28.15161,GPS,GP
Gauteng,Goodwill Industries Satellite Clinic,Satellite Clinic,MoH,-26.2075,28.023418,GPS,GP
Gauteng,Green Village Clinic,Clinic,Local authority,-26.2377,27.8054,GPS,GP
Gauteng,Greenfields Clinic,Clinic,Local authority,-26.3949,28.128174,GPS,GP
Gauteng,Greenspark Clinic,Clinic,MoH,-26.4938,27.51495,GPS,GP
Gauteng,Halfway House Clinic,Clinic,Local authority,-25.9988,28.128619,GPS,GP
Gauteng,Hands of Compassion Clinic,Clinic,MoH,-25.974,27.91211,GPS,GP
Gauteng,Head Office Clinic,Clinic,Local authority,-25.9638,28.13389,GPS,GP
Gauteng,Heidelberg Clinic,Clinic,MoH,-26.5014,28.35737,GPS,GP
Gauteng,Heidelberg Hospital,District Hospital,MoH,-26.5036,28.35131,GPS,GP
Gauteng,Helderkruin Clinic,Clinic,Local authority,-26.1374,27.869236,GPS,GP
Gauteng,Helen Joseph Hospital,Provincial Tertiary Hospital,MoH,-26.1839,27.9901,GPS,GP
Gauteng,Hercules Clinic,Clinic,Local authority,-25.712,28.1477,GPS,GP
Gauteng,Hikhensile Clinic,Clinic,Local authority,-25.9927,28.2041,GPS,GP
Gauteng,Hillbrow CHC,Community Health Centre,MoH,-26.1932,28.04478,GPS,GP
Gauteng,Hillshaven Satellite Clinic,Satellite Clinic,Local authority,-26.3679,27.66286,GPS,GP
Gauteng,Hippo Road Satellite Clinic,Satellite Clinic,MoH,-26.2282,28.05044,GPS,GP
Gauteng,Holani Clinic,Clinic,MoH,-25.7043,28.37559,GPS,GP
Gauteng,Illiondale Satellite Clinic,Satellite Clinic,Local authority,-26.1231,28.16389,GPS,GP
Gauteng,Imbalenhle Clinic,Clinic,MoH,-26.4504,27.85639,GPS,GP
Gauteng,Impala Park Satellite Clinic,Satellite Clinic,Local authority,-26.162,28.26655,GPS,GP
Gauteng,Itireleng CHC,Community Health Centre,MoH,-26.217399,27.87079,GPS,GP
Gauteng,Itireleng Clinic Ekurhuleni North 2,Clinic,Local authority,-26.0449,28.17845,GPS,GP
Gauteng,Itireleng LA Clinic,Clinic,Local authority,-26.2174,27.87079,GPS,GP
Gauteng,Itumeleng Clinic,Clinic,MoH,-25.8963,27.60122,GPS,GP
Gauteng,Jabavu Vusabantu Clinic,Clinic,Local authority,-26.253,27.87153,GPS,GP
Gauteng,Jabulane Dumane CHC,Community Health Centre,MoH,-26.3673,28.21789,GPS,GP
Gauteng,Jack Hindon Clinic,Clinic,MoH,-25.6665,28.16902,GPS,GP
Gauteng,Jameson Park Clinic,Clinic,Local authority,-26.4511,28.41774,GPS,GP
Gauteng,Jan Maree Clinic,Clinic,Local authority,-26.0948,27.74743,GPS,GP
Gauteng,Jeppe Clinic,Clinic,Local authority,-26.2048,28.06769,GPS,GP
Gauteng,Jeppe Street Clinic,Clinic,Local authority,-26.2014,28.04279,GPS,GP
Gauteng,Johan Deo Clinic,Clinic,MoH,-26.6014,27.80894,GPS,GP
Gauteng,Johan Heyns CHC,Community Health Centre,MoH,-26.703,27.83411,GPS,GP
Gauteng,Joubert Park Clinic,Clinic,Local authority,-26.1946,28.04825,GPS,GP
Gauteng,Joy Clinic,Clinic,Local authority,-26.1272,28.46417,GPS,GP
Gauteng,Jubilee Gateway Clinic,Clinic,MoH,-25.4026,28.26553,GPS,GP
Gauteng,Jubilee Hospital,District Hospital,MoH,-25.403,28.26582,GPS,GP
Gauteng,Kalafong Hospital,Provincial Tertiary Hospital,MoH,-25.7627,28.08948,GPS,GP
Gauteng,Kameeldrift Clinic,Clinic,MoH,-25.6808,28.285722,GPS,GP
Gauteng,Kanana Clinic,Clinic,MoH,-25.7758,28.60833,GPS,GP
Gauteng,Karenpark Clinic,Clinic,Local authority,-25.6725,28.108,GPS,GP
Gauteng,Katlehong North Clinic,Clinic,Local authority,-26.3136,28.1554,GPS,GP
Gauteng,Kekana Gardens Clinic,Clinic,MoH,-25.3785,28.3084,GPS,GP
Gauteng,Kekanastad Clinic,Clinic,MoH,-25.3586,28.245556,GPS,GP
Gauteng,Kempton Park Civic Centre Clinic,Clinic,Local authority,-26.1017,28.22727,GPS,GP
Gauteng,Kemston Clinic,Clinic,Local authority,-26.1874,28.31351,GPS,GP
Gauteng,Kgabo CHC,Community Health Centre,MoH,-25.4703,28.05896,GPS,GP
Gauteng,Khumalo Clinic,Clinic,Local authority,-26.3831,28.16033,GPS,GP
Gauteng,Khutsong CHC,Community Health Centre,Local authority,-26.3288,27.3286,GPS,GP
Gauteng,Khutsong East Clinic,Clinic,Local authority,-26.3291,27.318782,GPS,GP
Gauteng,Khutsong Ext 3 Clinic,Clinic,Local authority,-26.3415,27.30292,GPS,GP
Gauteng,Khutsong South Clinic,Clinic,Local authority,-26.3545,27.327342,GPS,GP
Gauteng,Khutsong West Clinic,Clinic,MoH,-26.3278,27.316072,GPS,GP
Gauteng,Kibler Park Clinic,Clinic,Local authority,-26.3189,28.00912,GPS,GP
Gauteng,Kingsway Clinic,Clinic,Local authority,-26.2353,28.37034,GPS,GP
Gauteng,Klipspruit West Clinic,Clinic,Local authority,-26.2895,27.88117,GPS,GP
Gauteng,Kliptown Clinic,Clinic,MoH,-26.2902,27.89538,GPS,GP
Gauteng,Klopper Park Clinic,Clinic,Local authority,-26.1471,28.19725,GPS,GP
Gauteng,Kocksoord Clinic,Clinic,Local authority,-26.2219,27.646,GPS,GP
Gauteng,Kokosi Clinic,Clinic,MoH,-26.4946,27.46838,GPS,GP
Gauteng,Kookrus Clinic,Clinic,Local authority,-26.5889,28.00349,GPS,GP
Gauteng,Kopanong Gateway Clinic,Clinic,MoH,-26.637898999999997,27.93328,GPS,GP
Gauteng,Kopanong Hospital,District Hospital,MoH,-26.6379,27.93328,GPS,GP
Gauteng,Krugersdorp Central Clinic,Clinic,Local authority,-26.0993,27.76868,GPS,GP
Gauteng,KT Motubatse Clinic,Clinic,MoH,-25.5839,28.08917,GPS,GP
Gauteng,Kwa-Thema CHC,Community Health Centre,Local authority,-26.2956,28.39114,GPS,GP
Gauteng,Laudium CHC,Community Health Centre,MoH,-25.784,28.08798,GPS,GP
Gauteng,Laudium Clinic,Clinic,Local authority,-25.7876,28.10701,GPS,GP
Gauteng,Lawley 2 Clinic,Clinic,Local authority,-26.3769,27.80498,GPS,GP
Gauteng,Lawley Clinic,Clinic,Local authority,-26.3914,27.81214,GPS,GP
Gauteng,Lenasia Clinic,Clinic,MoH,-26.3142,27.85136,GPS,GP
Gauteng,Lenasia Ext 10 Clinic,Clinic,Local authority,-26.3395,27.87291,GPS,GP
Gauteng,Lenasia Ext 2 Clinic,Clinic,Local authority,-26.3205,27.82563,GPS,GP
Gauteng,Lenasia Recreation Centre Ext 3 Clinic,Clinic,Local authority,-26.3244,27.844,GPS,GP
Gauteng,Lenasia South CHC,Community Health Centre,MoH,-26.3772,27.85029,GPS,GP
Gauteng,Lenasia South Civic Centre Clinic,Clinic,Local authority,-26.3887,27.86361,GPS,GP
Gauteng,Leondale Clinic,Clinic,Local authority,-26.3022,28.18181,GPS,GP
Gauteng,Leratong Gateway Clinic,Clinic,MoH,-26.171298999999998,27.80774,GPS,GP
Gauteng,Leratong Hospital,Regional Hospital,MoH,-26.1713,27.80774,GPS,GP
Gauteng,Lethabong Clinic,Clinic,Local authority,-26.2226,28.29691,GPS,GP
Gauteng,Levai Mbatha CHC,Community Health Centre,MoH,-26.5303,27.8441,GPS,GP
Gauteng,Lillian Ngoyi CHC,Community Health Centre,MoH,-26.2601,27.933,GPS,GP
Gauteng,Lotus Gardens Clinic,Clinic,Local authority,-25.7452,28.0825,GPS,GP
Gauteng,Lucky Mkhwanazi Clinic,Clinic,Local authority,-26.3852,28.41489,GPS,GP
Gauteng,Luipaardsvlei Clinic,Clinic,MoH,-26.1224,27.81346,GPS,GP
Gauteng,Lyndhurst Clinic,Clinic,Local authority,-26.1258,28.1091,GPS,GP
Gauteng,Lyttelton Clinic,Clinic,Local authority,-25.8352,28.19466,GPS,GP
Gauteng,Magagula Clinic,Clinic,MoH,-26.4282,28.19216,GPS,GP
Gauteng,Maki Legwete Clinic,Clinic,MoH,-26.179,27.78618,GPS,GP
Gauteng,Malvern Clinic,Clinic,Local authority,-26.2013,28.10971,GPS,GP
Gauteng,Mamelodi East Clinic,Clinic,Local authority,-25.7053,28.3754,GPS,GP
Gauteng,Mamelodi Hospital,Regional Hospital,MoH,-25.7186,28.36788,GPS,GP
Gauteng,Mamelodi West Clinic,Clinic,Local authority,-25.7142,28.3488,GPS,GP
Gauteng,Mandela Sisulu Clinic,Clinic,MoH,-26.2351,27.905931,GPS,GP
Gauteng,Mandisa Shiceka Clinic,Clinic,MoH,-25.4037,28.28567,GPS,GP
Gauteng,Maraisburg Clinic,Clinic,Local authority,-26.1786,27.9404,GPS,GP
Gauteng,Maria Rantho Clinic,Clinic,MoH,-25.5389,28.10365,GPS,GP
Gauteng,Market Avenue Clinic,Clinic,Local authority,-26.6737,27.92679,GPS,GP
Gauteng,Mayibuye Clinic,Clinic,Local authority,-26.0327,28.16528,GPS,GP
Gauteng,Meadowlands Zone 2 LA Clinic,Clinic,Local authority,-26.219599,27.89888,GPS,GP
Gauteng,Meadowlands Zone 2 Prov Clinic,Clinic,MoH,-26.2196,27.89888,GPS,GP
Gauteng,Michael Maponya LA Clinic,Clinic,Local authority,-26.262798999999998,27.90895,GPS,GP
Gauteng,Michael Maponya Prov Clinic,Clinic,MoH,-26.2628,27.90895,GPS,GP
Gauteng,Mid Ennerdale Clinic,Clinic,Local authority,-26.4139,27.84707,GPS,GP
Gauteng,Midrand West Clinic,Clinic,Local authority,-25.9845,28.112873,GPS,GP
Gauteng,Migson Manor Satellite Clinic,Satellite Clinic,Local authority,-26.4183,27.8776,GPS,GP
Gauteng,ML Pessen Clinic,Clinic,Local authority,-26.1822,27.70204,GPS,GP
Gauteng,Mofolo CHC,Community Health Centre,MoH,-26.2476,27.88399,GPS,GP
Gauteng,Mofolo South Clinic,Clinic,Local authority,-26.2579,27.8862,GPS,GP
