country,admin1_name,fac_name,type,org_owner,lat,long,country_iso3c,admin1_abb
South Africa,Eastern Cape,Aberdeen Hospital,District Hospital,MoH,-32.4862,24.06093,ZAF,EC
South Africa,Eastern Cape,Aberdeen Satellite Clinic,Satellite Clinic,MoH,-32.475,24.052,ZAF,EC
South Africa,Eastern Cape,AD Keet Clinic,Clinic,MoH,-34.0602,24.91831,ZAF,EC
South Africa,Eastern Cape,Addo Clinic,Clinic,MoH,-33.5422,25.69077,ZAF,EC
South Africa,Eastern Cape,Addo Enon Satellite Clinic,Satellite Clinic,MoH,-33.3946,25.54625,ZAF,EC
South Africa,Eastern Cape,Adelaide Clinic,Clinic,MoH,-32.7071,26.294605,ZAF,EC
South Africa,Eastern Cape,Adelaide Gateway Clinic,Clinic,MoH,-32.6999,26.29404,ZAF,EC
South Africa,Eastern Cape,Adelaide Hospital,District Hospital,MoH,-32.7009,26.29427,ZAF,EC
South Africa,Eastern Cape,Aeroville Clinic,Clinic,MoH,-32.7496,25.6035,ZAF,EC
South Africa,Eastern Cape,Afsondering Clinic,Clinic,MoH,-30.1798,28.94812,ZAF,EC
South Africa,Eastern Cape,Agnes Rest Clinic,Clinic,MoH,-31.6974,27.031329,ZAF,EC
South Africa,Eastern Cape,Albany Road Clinic,Clinic,MoH,-33.1803,26.32115,ZAF,EC
South Africa,Eastern Cape,Alexandria Clinic,Clinic,MoH,-33.6512,26.41422,ZAF,EC
South Africa,Eastern Cape,Algoa Park Clinic,Clinic,MoH,-33.9011,25.56448,ZAF,EC
South Africa,Eastern Cape,Alicedale Clinic,Clinic,MoH,-33.3173,26.0906,ZAF,EC
South Africa,Eastern Cape,Aliwal North Block H Clinic,Clinic,MoH,-30.6883,26.68674,ZAF,EC
South Africa,Eastern Cape,Aliwal North Hospital,District Hospital,MoH,-30.6969,26.70719,ZAF,EC
South Africa,Eastern Cape,All Saints Gateway Clinic,Clinic,MoH,-31.6619,28.0504,ZAF,EC
South Africa,Eastern Cape,All Saints Hospital,District Hospital,MoH,-31.6619,28.05041,ZAF,EC
South Africa,Eastern Cape,Alphendale Clinic,Clinic,MoH,-33.0135,27.84133,ZAF,EC
South Africa,Eastern Cape,Amabele Clinic,Clinic,MoH,-32.6633,27.52389,ZAF,EC
South Africa,Eastern Cape,Amadiba Clinic,Clinic,MoH,-31.0731,30.179245,ZAF,EC
South Africa,Eastern Cape,Amahleke Clinic,Clinic,MoH,-32.8337,27.22825,ZAF,EC
South Africa,Eastern Cape,Amandengane Clinic,Clinic,MoH,-31.0861,29.75053,ZAF,EC
South Africa,Eastern Cape,Amantshangase Clinic,Clinic,MoH,-30.8396,29.58773,ZAF,EC
South Africa,Eastern Cape,Amathole Basin Clinic,Clinic,MoH,-32.6958,26.993,ZAF,EC
South Africa,Eastern Cape,Amatola TB Clinic,Clinic,MoH,-32.89,27.39,ZAF,EC
South Africa,Eastern Cape,Andries Vosloo Hospital,District Hospital,MoH,-32.7218,25.59525,ZAF,EC
South Africa,Eastern Cape,Andrieskraal Clinic,Clinic,MoH,-33.7465,24.64038,ZAF,EC
South Africa,Eastern Cape,Anglo African Street Clinic,Clinic,MoH,-33.31,26.52464,ZAF,EC
South Africa,Eastern Cape,Asherville Clinic,Clinic,MoH,-32.2703,24.55555,ZAF,EC
South Africa,Eastern Cape,Askeaton Clinic,Clinic,MoH,-31.6252,27.46074,ZAF,EC
South Africa,Eastern Cape,Aspiranza Clinic,Clinic,MoH,-33.0191,27.84991,ZAF,EC
South Africa,Eastern Cape,Assina Mandla Clinic,Clinic,MoH,-32.7504,26.7941,ZAF,EC
South Africa,Eastern Cape,Bacclesfarm Clinic,Clinic,MoH,-32.0399,26.45647,ZAF,EC
South Africa,Eastern Cape,Badi Clinic,Clinic,MoH,-32.287,28.66265,ZAF,EC
South Africa,Eastern Cape,Bala Clinic,Clinic,MoH,-30.9902,29.53691,ZAF,EC
South Africa,Eastern Cape,Baleni Clinic,Clinic,MoH,-31.1591,29.97147,ZAF,EC
South Africa,Eastern Cape,Balfour Clinic,Clinic,MoH,-32.5457,26.68213,ZAF,EC
South Africa,Eastern Cape,Bambisana Gateway Clinic,Clinic,MoH,-31.4508,29.4546,ZAF,EC
South Africa,Eastern Cape,Bambisana Hospital,District Hospital,MoH,-31.4501,29.45397,ZAF,EC
South Africa,Eastern Cape,Banzi Clinic,Clinic,MoH,-32.1263,27.51978,ZAF,EC
South Africa,Eastern Cape,Baroda Clinic,Clinic,MoH,-32.0021,25.51025,ZAF,EC
South Africa,Eastern Cape,Bathurst Clinic,Clinic,MoH,-33.493699,26.83122,ZAF,EC
South Africa,Eastern Cape,Baviaans Clinic,Clinic,MoH,-33.3246,24.34423,ZAF,EC
South Africa,Eastern Cape,Baziya CHC,Community Health Centre,MoH,-31.6151,28.38365,ZAF,EC
South Africa,Eastern Cape,Beacon Bay Clinic,Clinic,MoH,-32.9679,27.93835,ZAF,EC
South Africa,Eastern Cape,Beatrice Ngwentle Clinic,Clinic,MoH,-32.7175,25.59153,ZAF,EC
South Africa,Eastern Cape,Bedford Clinic,Clinic,MoH,-32.6793,26.088811,ZAF,EC
South Africa,Eastern Cape,Bedford Hospital,District Hospital,MoH,-32.6762,26.083139,ZAF,EC
South Africa,Eastern Cape,Beestekraal Clinic,Clinic,MoH,-31.5196,27.80971,ZAF,EC
South Africa,Eastern Cape,Bengu Clinic Emalahleni,Clinic,MoH,-31.7927,27.335408,ZAF,EC
South Africa,Eastern Cape,Bensonvale Clinic,Clinic,MoH,-30.5822,27.35663,ZAF,EC
South Africa,Eastern Cape,Bergsig Clinic,Clinic,MoH,-33.3873,25.44973,ZAF,EC
South Africa,Eastern Cape,Berlin Clinic,Clinic,MoH,-32.8839,27.577761,ZAF,EC
South Africa,Eastern Cape,Bethania Clinic,Clinic,MoH,-30.6228,28.33295,ZAF,EC
South Africa,Eastern Cape,Bezuidenhoutville Clinic,Clinic,MoH,-32.688,26.29813,ZAF,EC
South Africa,Eastern Cape,Bhele Clinic,Clinic,MoH,-33.2026,27.18268,ZAF,EC
South Africa,Eastern Cape,Bhisho Gateway Clinic,Clinic,MoH,-32.8277,27.4551,ZAF,EC
South Africa,Eastern Cape,Bhisho Hospital,District Hospital,MoH,-32.8277,27.45516,ZAF,EC
South Africa,Eastern Cape,Bhisho Parliament Clinic,Clinic,MoH,-32.8639,27.42898,ZAF,EC
South Africa,Eastern Cape,Bhongweni Clinic,Clinic,MoH,-32.7449,25.79826,ZAF,EC
South Africa,Eastern Cape,Bilatye Clinic,Clinic,MoH,-31.9464,27.365139,ZAF,EC
South Africa,Eastern Cape,Bityi Clinic,Clinic,MoH,-31.7942,28.523408,ZAF,EC
South Africa,Eastern Cape,BJ Vorster  Hospital Kareedouw,District Hospital,MoH,-33.9515,24.29786,ZAF,EC
South Africa,Eastern Cape,Bluegums Clinic,Clinic,MoH,-30.5475,27.232414,ZAF,EC
South Africa,Eastern Cape,Bodweni Clinic,Clinic,MoH,-31.185,29.55156,ZAF,EC
South Africa,Eastern Cape,Bokleni Clinic,Clinic,MoH,-31.5946,28.19492,ZAF,EC
South Africa,Eastern Cape,Bolotwa Clinic Confimvaba,Clinic,MoH,-31.5919,27.20089,ZAF,EC
South Africa,Eastern Cape,Bolotwa Clinic Idutywa,Clinic,MoH,-31.917,28.29209,ZAF,EC
South Africa,Eastern Cape,Bomvana Clinic,Clinic,MoH,-32.1132,28.80161,ZAF,EC
South Africa,Eastern Cape,Bomvini Clinic,Clinic,MoH,-31.4018,29.472362,ZAF,EC
South Africa,Eastern Cape,Boomplaas Clinic,Clinic,MoH,-31.5129,27.17074,ZAF,EC
South Africa,Eastern Cape,Booysens Park Clinic,Clinic,MoH,-33.862,25.45872,ZAF,EC
South Africa,Eastern Cape,Braelyn Clinic,Clinic,MoH,-32.9999,27.8793,ZAF,EC
South Africa,Eastern Cape,Braelyn Extension Clinic,Clinic,MoH,-33.004,27.86104,ZAF,EC
South Africa,Eastern Cape,Breidbach Clinic,Clinic,MoH,-32.8881,27.44361,ZAF,EC
South Africa,Eastern Cape,Brister House Clinic,Clinic,MoH,-33.9575,25.61869,ZAF,EC
South Africa,Eastern Cape,Brug Straat Clinic Jansenville,Clinic,MoH,-32.9481,24.66555,ZAF,EC
South Africa,Eastern Cape,Buchele Clinic,Clinic,MoH,-31.4956,29.621748,ZAF,EC
South Africa,Eastern Cape,Bulembu Clinic,Clinic,MoH,-32.8734,27.26767,ZAF,EC
South Africa,Eastern Cape,Buntingville Clinic,Clinic,MoH,-31.6338,28.86661,ZAF,EC
South Africa,Eastern Cape,Burgersdorp Clinic,Clinic,MoH,-30.9948,26.3321,ZAF,EC
South Africa,Eastern Cape,Burgersdorp Hospital,District Hospital,MoH,-30.9935,26.31398,ZAF,EC
South Africa,Eastern Cape,Burnshill Clinic,Clinic,MoH,-32.769,27.0551,ZAF,EC
South Africa,Eastern Cape,Butterworth Gateway Clinic,Clinic,MoH,-32.332299,28.13877,ZAF,EC
South Africa,Eastern Cape,Butterworth Hospital,District Hospital,MoH,-32.3323,28.13877,ZAF,EC
South Africa,Eastern Cape,Caba Clinic,Clinic,MoH,-30.9363,28.71145,ZAF,EC
South Africa,Eastern Cape,Caguba Clinic,Clinic,MoH,-31.6237,29.4494,ZAF,EC
South Africa,Eastern Cape,Cala Hospital,District Hospital,MoH,-31.5223,27.68274,ZAF,EC
South Africa,Eastern Cape,Cambridge Clinic,Clinic,MoH,-32.9779,27.88947,ZAF,EC
South Africa,Eastern Cape,Cancele Clinic,Clinic,MoH,-30.8479,28.78897,ZAF,EC
South Africa,Eastern Cape,Canzibe Gateway Clinic,Clinic,MoH,-31.8088,29.06584,ZAF,EC
South Africa,Eastern Cape,Canzibe Hospital,District Hospital,MoH,-31.8088,29.06588,ZAF,EC
South Africa,Eastern Cape,Cata Clinic,Clinic,MoH,-32.5948,27.12479,ZAF,EC
South Africa,Eastern Cape,Cathcart Clinic,Clinic,MoH,-32.2983,27.14451,ZAF,EC
South Africa,Eastern Cape,Cathcart Hospital,District Hospital,MoH,-32.2902,27.13691,ZAF,EC
South Africa,Eastern Cape,CC Lloyd Clinic,Clinic,MoH,-32.775,26.63361,ZAF,EC
South Africa,Eastern Cape,Cecilia Makiwane Hospital,Regional Hospital,MoH,-32.9278,27.74422,ZAF,EC
South Africa,Eastern Cape,Central CHC Sandford,Community Health Centre,MoH,-33.958,25.60172,ZAF,EC
South Africa,Eastern Cape,Central Clinic East London,Clinic,MoH,-33.0168,27.90585,ZAF,EC
South Africa,Eastern Cape,Central Clinic King William's Town,Clinic,MoH,-32.8794,27.39542,ZAF,EC
South Africa,Eastern Cape,Central Clinic Port Elizabeth,Clinic,MoH,-33.9643,25.6133,ZAF,EC
South Africa,Eastern Cape,Chatty Clinic,Clinic,MoH,-33.8732,25.49539,ZAF,EC
South Africa,Eastern Cape,Chris Hani Clinic,Clinic,MoH,-32.9546,27.92509,ZAF,EC
South Africa,Eastern Cape,Cimezile Clinic,Clinic,MoH,-32.274,26.62354,ZAF,EC
South Africa,Eastern Cape,Civic Centre Clinic Mthatha,Clinic,MoH,-31.5826,28.78992,ZAF,EC
South Africa,Eastern Cape,Clarkebury Clinic,Clinic,MoH,-31.7919,28.28793,ZAF,EC
South Africa,Eastern Cape,Clarkson Clinic,Clinic,MoH,-34.0104,24.29446,ZAF,EC
South Africa,Eastern Cape,Cloete Joubert Hospital  Barkly East,District Hospital,MoH,-30.9676,27.58507,ZAF,EC
South Africa,Eastern Cape,Coega Satellite Clinic,Satellite Clinic,MoH,-33.7567,25.65792,ZAF,EC
South Africa,Eastern Cape,Cofimvaba Hospital,District Hospital,MoH,-32.0119,27.58348,ZAF,EC
South Africa,Eastern Cape,Colchester Health Post,Health Post,MoH,-33.683,25.8,ZAF,EC
South Africa,Eastern Cape,Coldstream Satellite Clinic,Satellite Clinic,MoH,-33.9618,23.70077,ZAF,EC
South Africa,Eastern Cape,Collondale Satellite Clinic,Satellite Clinic,MoH,-33.0397,27.8188,ZAF,EC
South Africa,Eastern Cape,Cradock Gateway Clinic,Clinic,MoH,-32.1689,25.616194,ZAF,EC
South Africa,Eastern Cape,Cradock Hospital,District Hospital,MoH,-32.1673,25.62243,ZAF,EC
South Africa,Eastern Cape,Cumakala 1 Clinic,Clinic,MoH,-32.5571,27.44754,ZAF,EC
South Africa,Eastern Cape,Cumakala 2 Clinic,Clinic,MoH,-32.5629,27.44868,ZAF,EC
South Africa,Eastern Cape,Cumakala Satellite Clinic,Satellite Clinic,MoH,-31.6481,27.224568,ZAF,EC
South Africa,Eastern Cape,Cwecweni Clinic,Clinic,MoH,-31.9367,28.05575,ZAF,EC
South Africa,Eastern Cape,Cwele Clinic,Clinic,MoH,-31.672,29.21289,ZAF,EC
South Africa,Eastern Cape,Cwili Clinic,Clinic,MoH,-32.677,28.36332,ZAF,EC
South Africa,Eastern Cape,Daliwe Clinic,Clinic,MoH,-32.3019,27.15127,ZAF,EC
South Africa,Eastern Cape,Daliwonga Clinic,Clinic,MoH,-31.1052,29.9072,ZAF,EC
South Africa,Eastern Cape,Debe Nek Clinic,Clinic,MoH,-32.8458,27.13793,ZAF,EC
South Africa,Eastern Cape,Didimana Clinic,Clinic,MoH,-32.1758,26.8186,ZAF,EC
South Africa,Eastern Cape,Dimbaza CHC,Community Health Centre,MoH,-32.8352,27.21388,ZAF,EC
South Africa,Eastern Cape,Donnington Clinic,Clinic,MoH,-32.7236,27.42576,ZAF,EC
South Africa,Eastern Cape,Dora Nginza Hospital,Regional Hospital,MoH,-33.8825,25.563114,ZAF,EC
South Africa,Eastern Cape,Dordrecht Clinic,Clinic,MoH,-31.3748,27.04622,ZAF,EC
South Africa,Eastern Cape,Dordrecht Hospital,District Hospital,MoH,-31.3913,27.045615,ZAF,EC
South Africa,Eastern Cape,Double Falls Clinic,Clinic,MoH,-31.3739,29.12298,ZAF,EC
South Africa,Eastern Cape,Dr CL Bikitsha Clinic,Clinic,MoH,-32.2782,28.10553,ZAF,EC
South Africa,Eastern Cape,Dr Malizo Mpehle Memorial Hospital,District Hospital,MoH,-31.3165,28.778056,ZAF,EC
South Africa,Eastern Cape,Drake Road Clinic,Clinic,MoH,-32.9857,27.9292,ZAF,EC
South Africa,Eastern Cape,Du Preez Street Clinic,Clinic,MoH,-33.8033,25.46274,ZAF,EC
South Africa,Eastern Cape,Duncan Village CHC,Community Health Centre,MoH,-33.0078,27.88599,ZAF,EC
South Africa,Eastern Cape,Dundee Clinic,Clinic,MoH,-30.7489,29.4183,ZAF,EC
South Africa,Eastern Cape,Dungu Clinic,Clinic,MoH,-30.9569,29.30276,ZAF,EC
South Africa,Eastern Cape,Edamini Clinic,Clinic,MoH,-33.8327,25.38563,ZAF,EC
South Africa,Eastern Cape,Efata Clinic,Clinic,MoH,-31.5697,28.7242,ZAF,EC
South Africa,Eastern Cape,Ekuphumleni Clinic,Clinic,MoH,-32.1781,26.781860000000002,ZAF,EC
South Africa,Eastern Cape,Ekuphumleni Satellite Clinic Nelson Mandela Bay,Satellite Clinic,MoH,-33.8545,25.29028,ZAF,EC
South Africa,Eastern Cape,Elliot Clinic,Clinic,MoH,-31.3333,27.84953,ZAF,EC
South Africa,Eastern Cape,Elliot Hospital,District Hospital,MoH,-31.3371,27.83797,ZAF,EC
South Africa,Eastern Cape,Elucwecwe Clinic,Clinic,MoH,-31.7338,27.8688,ZAF,EC
South Africa,Eastern Cape,Eluhewini Clinic,Clinic,MoH,-31.7058,28.12643,ZAF,EC
South Africa,Eastern Cape,Elukholweni Clinic,Clinic,MoH,-30.6329,28.84811,ZAF,EC
South Africa,Eastern Cape,Eluxolweni Clinic,Clinic,MoH,-31.6433,25.80519,ZAF,EC
South Africa,Eastern Cape,Empilisweni Clinic,Clinic,MoH,-31.1936,28.23954,ZAF,EC
South Africa,Eastern Cape,Empilisweni Hospital,District Hospital,MoH,-30.5332,27.35337,ZAF,EC
South Africa,Eastern Cape,Empilweni Gompo CHC,Community Health Centre,MoH,-33.0145,27.84894,ZAF,EC
South Africa,Eastern Cape,Engojini Clinic,Clinic,MoH,-32.2239,26.75392,ZAF,EC
South Africa,Eastern Cape,Esilindini Clinic,Clinic,MoH,-30.5439,27.33027,ZAF,EC
South Africa,Eastern Cape,Ethembeni Clinic,Clinic,MoH,-32.7628,27.43183,ZAF,EC
South Africa,Eastern Cape,Eureka Clinic,Clinic,MoH,-31.0103,26.31904,ZAF,EC
South Africa,Eastern Cape,Ezibeleni Clinic,Clinic,MoH,-31.9081,26.95643,ZAF,EC
South Africa,Eastern Cape,Ezingcuka Clinic,Clinic,MoH,-31.3005,28.658251,ZAF,EC
South Africa,Eastern Cape,Fezeka NU 3 Clinic,Clinic,MoH,-32.9319,27.75319,ZAF,EC
South Africa,Eastern Cape,Fish River Clinic,Clinic,MoH,-31.9119,25.41589,ZAF,EC
South Africa,Eastern Cape,Flagstaff Clinic,Clinic,MoH,-31.0803,29.4969,ZAF,EC
South Africa,Eastern Cape,Fort Beaufort Gateway Clinic,Clinic,MoH,-32.7816,26.6348,ZAF,EC
South Africa,Eastern Cape,Fort Beaufort Hospital,District Hospital,MoH,-32.7802,26.633571,ZAF,EC
South Africa,Eastern Cape,Fort Grey Clinic,Clinic,MoH,-33.037,27.80318,ZAF,EC
South Africa,Eastern Cape,Fort Malan Clinic,Clinic,MoH,-32.1513,28.52353,ZAF,EC
South Africa,Eastern Cape,Frankfort Clinic,Clinic,MoH,-32.7202,27.45267,ZAF,EC
South Africa,Eastern Cape,Fransbury Clinic,Clinic,MoH,-31.9642,27.07476,ZAF,EC
South Africa,Eastern Cape,Frere Gateway Clinic,Clinic,MoH,-32.9971,27.88982,ZAF,EC
South Africa,Eastern Cape,Frere Hospital,Provincial Tertiary Hospital,MoH,-32.9959,27.89156,ZAF,EC
South Africa,Eastern Cape,Frontier Hospital,Regional Hospital,MoH,-31.8892,26.871347,ZAF,EC
South Africa,Eastern Cape,Gardens Clinic,Clinic,MoH,-31.8949,26.8719,ZAF,EC
South Africa,Eastern Cape,Gcaleka Clinic,Clinic,MoH,-32.3379,28.31987,ZAF,EC
South Africa,Eastern Cape,Gelvandale Clinic,Clinic,MoH,-33.9165,25.54914,ZAF,EC
South Africa,Eastern Cape,Gilton Clinic,Clinic,MoH,-32.6618,26.94244,ZAF,EC
South Africa,Eastern Cape,Ginsberg Clinic,Clinic,MoH,-32.8921,27.38547,ZAF,EC
South Africa,Eastern Cape,Glen Grey Hospital,District Hospital,MoH,-31.719898999999998,27.19939,ZAF,EC
South Africa,Eastern Cape,Glenmore Clinic,Clinic,MoH,-33.1426,26.85843,ZAF,EC
South Africa,Eastern Cape,Gompo A Ndende Clinic,Clinic,MoH,-33.0072,27.87616,ZAF,EC
South Africa,Eastern Cape,Gompo B Jwayi Clinic,Clinic,MoH,-33.0167,27.8578,ZAF,EC
South Africa,Eastern Cape,Gompo C Jabavu Clinic,Clinic,MoH,-33.0116,27.86389,ZAF,EC
South Africa,Eastern Cape,Gonubie Clinic,Clinic,MoH,-32.9415,28.02194,ZAF,EC
South Africa,Eastern Cape,Good Hope Clinic,Clinic,MoH,-31.3274,29.26024,ZAF,EC
South Africa,Eastern Cape,Goso Forest Clinic,Clinic,MoH,-31.2331,29.37326,ZAF,EC
South Africa,Eastern Cape,Govan Mbeki Clinic,Clinic,MoH,-33.9481,25.60637,ZAF,EC
South Africa,Eastern Cape,Gqaga Clinic,Clinic,MoH,-31.5541,28.2108,ZAF,EC
South Africa,Eastern Cape,Gqaqhala Clinic,Clinic,MoH,-31.2828,28.387472,ZAF,EC
South Africa,Eastern Cape,Gqebera CHC,Community Health Centre,MoH,-33.9861,25.58886,ZAF,EC
South Africa,Eastern Cape,Gqogqora Clinic,Clinic,MoH,-31.9805,27.8884,ZAF,EC
South Africa,Eastern Cape,Gqubeni Clinic,Clinic,MoH,-31.5521,29.458749,ZAF,EC
South Africa,Eastern Cape,Gqunqe Clinic,Clinic,MoH,-32.4688,28.56265,ZAF,EC
South Africa,Eastern Cape,Graaff-Reinet Day Hospital,Community Health Centre,MoH,-32.2728,24.55239,ZAF,EC
South Africa,Eastern Cape,Gracey Clinic,Clinic,MoH,-32.5787,25.12838,ZAF,EC
South Africa,Eastern Cape,Grahamstown Clinic,Clinic,MoH,-33.311599,26.52639,ZAF,EC
South Africa,Eastern Cape,Grahamstown FP Clinic,Clinic,MoH,-33.3116,26.52639,ZAF,EC
South Africa,Eastern Cape,Grainvalley Clinic,Clinic,MoH,-32.2376,28.04856,ZAF,EC
South Africa,Eastern Cape,Greenfields Clinic,Clinic,MoH,-33.0352,27.86405,ZAF,EC
South Africa,Eastern Cape,Greenville Gateway Clinic,Clinic,MoH,-30.919,30.09949,ZAF,EC
South Africa,Eastern Cape,Greenville Hospital,District Hospital,MoH,-30.9316,30.108882,ZAF,EC
South Africa,Eastern Cape,Grey Gateway Clinic,Clinic,MoH,-32.8796,27.39581,ZAF,EC
South Africa,Eastern Cape,Grey Hospital,District Hospital,MoH,-32.8793,27.39579,ZAF,EC
South Africa,Eastern Cape,Guba Clinic,Clinic,MoH,-31.5354,27.2793,ZAF,EC
South Africa,Eastern Cape,Gubenxa Clinic,Clinic,MoH,-31.7174,27.82102,ZAF,EC
South Africa,Eastern Cape,Gura Clinic,Clinic,MoH,-31.0266,28.84105,ZAF,EC
South Africa,Eastern Cape,Gustav Lamour Clinic,Clinic,MoH,-33.8159,25.46387,ZAF,EC
South Africa,Eastern Cape,Gwabeni Clinic,Clinic,MoH,-33.0961,26.96185,ZAF,EC
South Africa,Eastern Cape,Gwadana Clinic,Clinic,MoH,-32.1429,28.28887,ZAF,EC
South Africa,Eastern Cape,Gwadu Clinic,Clinic,MoH,-32.2203,28.66774,ZAF,EC
South Africa,Eastern Cape,Gwatyu Clinic,Clinic,MoH,-32.0169,27.31561,ZAF,EC
South Africa,Eastern Cape,Gxulu Clinic,Clinic,MoH,-32.6452,27.10986,ZAF,EC
South Africa,Eastern Cape,Gxwederha Clinic,Clinic,MoH,-32.8416,26.78648,ZAF,EC
South Africa,Eastern Cape,Hackney Clinic,Clinic,MoH,-32.3144,26.64521,ZAF,EC
South Africa,Eastern Cape,Hamburg Clinic,Clinic,MoH,-33.2905,27.4733,ZAF,EC
South Africa,Eastern Cape,Haytor Clinic,Clinic,MoH,-32.2942,26.77051,ZAF,EC
South Africa,Eastern Cape,Healdtown Clinic,Clinic,MoH,-32.7315,26.70145,ZAF,EC
South Africa,Eastern Cape,Hebe-Hebe Clinic,Clinic,MoH,-32.236,27.83032,ZAF,EC
South Africa,Eastern Cape,Helenvale Clinic,Clinic,MoH,-33.9113,25.55133,ZAF,EC
South Africa,Eastern Cape,Herschel Clinic,Clinic,MoH,-30.6147,27.16438,ZAF,EC
South Africa,Eastern Cape,Hewu Hospital,District Hospital,MoH,-32.1727,26.80522,ZAF,EC
South Africa,Eastern Cape,High Street Clinic,Clinic,MoH,-32.1686,25.61616,ZAF,EC
South Africa,Eastern Cape,Highview Clinic,Clinic,MoH,-32.4351,27.94669,ZAF,EC
South Africa,Eastern Cape,Hillside Clinic Nkonkobe,Clinic,MoH,-32.7522,26.63978,ZAF,EC
South Africa,Eastern Cape,Hillside Clinic Senqu,Clinic,MoH,-30.561,27.564216,ZAF,EC
South Africa,Eastern Cape,Hilton Clinic,Clinic,MoH,-30.6971,26.70189,ZAF,EC
South Africa,Eastern Cape,Hlabatshane Clinic,Clinic,MoH,-31.7449,28.85659,ZAF,EC
South Africa,Eastern Cape,Hlala Uphilile Clinic,Clinic,MoH,-31.381,27.03673,ZAF,EC
South Africa,Eastern Cape,Hlamandana Clinic,Clinic,MoH,-30.8176,29.720125,ZAF,EC
South Africa,Eastern Cape,Hlangalane Clinic,Clinic,MoH,-30.9586,28.55037,ZAF,EC
South Africa,Eastern Cape,Hlankomo Clinic,Clinic,MoH,-30.9303,28.41911,ZAF,EC
South Africa,Eastern Cape,Hlomendlini Clinic,Clinic,MoH,-30.5858,27.2632,ZAF,EC
South Africa,Eastern Cape,Hobeni Clinic,Clinic,MoH,-32.175,28.87571,ZAF,EC
South Africa,Eastern Cape,Hofmeyer Clinic,Clinic,MoH,-31.6558,25.80396,ZAF,EC
South Africa,Eastern Cape,Holy Cross Gateway Clinic,Clinic,MoH,-31.0812,29.49535,ZAF,EC
South Africa,Eastern Cape,Holy Cross Hospital,District Hospital,MoH,-31.0812,29.49531,ZAF,EC
South Africa,Eastern Cape,Horseshoe Clinic,Clinic,MoH,-32.2607,24.53628,ZAF,EC
South Africa,Eastern Cape,Horton Clinic,Clinic,MoH,-33.1127,27.02162,ZAF,EC
South Africa,Eastern Cape,Hukuwa Clinic,Clinic,MoH,-32.1554,26.64698,ZAF,EC
South Africa,Eastern Cape,Humansdorp Clinic,Clinic,MoH,-34.0322,24.76844,ZAF,EC
South Africa,Eastern Cape,Humansdorp Hospital,District Hospital,MoH,-34.0302,24.78144,ZAF,EC
South Africa,Eastern Cape,Ibika Clinic,Clinic,MoH,-32.2835,28.22048,ZAF,EC
South Africa,Eastern Cape,Idutywa Nqabara Clinic,Clinic,MoH,-32.1009,28.45375,ZAF,EC
South Africa,Eastern Cape,Idutywa Village CHC,Community Health Centre,MoH,-32.097,28.29909,ZAF,EC
South Africa,Eastern Cape,Ikamvelihle Clinic,Clinic,MoH,-33.7932,25.61303,ZAF,EC
South Africa,Eastern Cape,Ilinge Clinic,Clinic,MoH,-31.9773,27.0402,ZAF,EC
South Africa,Eastern Cape,Ilita Clinic,Clinic,MoH,-32.8899,27.533847,ZAF,EC
South Africa,Eastern Cape,Imidange Clinic,Clinic,MoH,-32.7796,27.48696,ZAF,EC
South Africa,Eastern Cape,Imizamo Yetho Clinic,Clinic,MoH,-33.743,24.79744,ZAF,EC
South Africa,Eastern Cape,Imizizi Clinic,Clinic,MoH,-30.9089,29.97082,ZAF,EC
South Africa,Eastern Cape,Indwe Hospital,District Hospital,MoH,-31.4683,27.34042,ZAF,EC
South Africa,Eastern Cape,Isikelo Clinic,Clinic,MoH,-30.7866,29.76793,ZAF,EC
South Africa,Eastern Cape,Isikhoba Clinic,Clinic,MoH,-32.0098,27.58225,ZAF,EC
South Africa,Eastern Cape,Isilimela Gateway Clinic,Clinic,MoH,-31.7341,29.35891,ZAF,EC
South Africa,Eastern Cape,Isilimela Hospital,District Hospital,MoH,-31.7342,29.35888,ZAF,EC
South Africa,Eastern Cape,Isilindini Clinic,Clinic,MoH,-30.62,28.59078,ZAF,EC
South Africa,Eastern Cape,Isolomzi Clinic,Clinic,MoH,-33.8256,25.37535,ZAF,EC
South Africa,Eastern Cape,Jafta Clinic,Clinic,MoH,-32.7988,27.31083,ZAF,EC
South Africa,Eastern Cape,Jaji Clinic,Clinic,MoH,-33.3514,27.11316,ZAF,EC
South Africa,Eastern Cape,Jalamba Clinic,Clinic,MoH,-32.0169,28.73915,ZAF,EC
South Africa,Eastern Cape,Jama Clinic,Clinic,MoH,-33.3769,27.09369,ZAF,EC
South Africa,Eastern Cape,Jamestown Clinic,Clinic,MoH,-31.0868,26.844546,ZAF,EC
South Africa,Eastern Cape,Jamestown Hospital,District Hospital,MoH,-31.1236,26.8074,ZAF,EC
South Africa,Eastern Cape,Jingqi Clinic,Clinic,MoH,-32.3331,28.65779,ZAF,EC
South Africa,Eastern Cape,Joe Slovo Clinic,Clinic,MoH,-33.825,25.50272,ZAF,EC
South Africa,Eastern Cape,John Dube Clinic,Clinic,MoH,-32.9913,27.81635,ZAF,EC
South Africa,Eastern Cape,Joubertina CHC,Community Health Centre,MoH,-33.8263,23.86474,ZAF,EC
South Africa,Eastern Cape,Joza Clinic,Clinic,MoH,-33.2917,26.56033,ZAF,EC
South Africa,Eastern Cape,Kalankomo Clinic,Clinic,MoH,-30.9436,28.71078,ZAF,EC
South Africa,Eastern Cape,Kamastone Clinic,Clinic,MoH,-32.0695,26.64874,ZAF,EC
South Africa,Eastern Cape,Kambi Clinic,Clinic,MoH,-31.4929,28.66171,ZAF,EC
South Africa,Eastern Cape,Kanyayo  Clinic Bizana,Clinic,MoH,-31.0792,29.8004,ZAF,EC
South Africa,Eastern Cape,Kareedouw Clinic,Clinic,MoH,-33.9524,24.30601,ZAF,EC
South Africa,Eastern Cape,Kati-Kati Clinic,Clinic,MoH,-32.2882,27.15709,ZAF,EC
South Africa,Eastern Cape,Katkop Clinic,Clinic,MoH,-30.8977,28.54941,ZAF,EC
South Africa,Eastern Cape,KB Siswana Clinic,Clinic,MoH,-31.5592,26.54925,ZAF,EC
South Africa,Eastern Cape,Kenton-On-Sea Clinic,Clinic,MoH,-33.6762,26.66627,ZAF,EC
South Africa,Eastern Cape,Keti Clinic,Clinic,MoH,-32.0421,28.1156,ZAF,EC
South Africa,Eastern Cape,Khanya Clinic,Clinic,MoH,-33.8653,25.57497,ZAF,EC
South Africa,Eastern Cape,Khanyayo Clinic Holy Cross,Clinic,MoH,-31.1938,29.84544,ZAF,EC
South Africa,Eastern Cape,Khayamnandi Clinic,Clinic,MoH,-31.2817,25.812072,ZAF,EC
South Africa,Eastern Cape,Khuze Clinic,Clinic,MoH,-32.2127,27.62775,ZAF,EC
South Africa,Eastern Cape,Kirkwood Clinic,Clinic,MoH,-33.4006,25.44287,ZAF,EC
South Africa,Eastern Cape,Kleinbulhoek Clinic,Clinic,MoH,-32.1,26.56023,ZAF,EC
South Africa,Eastern Cape,Kohlo Clinic,Clinic,MoH,-31.5701,29.40748,ZAF,EC
South Africa,Eastern Cape,Kolomana Clinic,Clinic,MoH,-32.4255,26.78879,ZAF,EC
South Africa,Eastern Cape,Komga Clinic,Clinic,MoH,-32.5817,27.88549,ZAF,EC
South Africa,Eastern Cape,Komga Hospital,District Hospital,MoH,-32.576,27.89576,ZAF,EC
South Africa,Eastern Cape,Komga Rural Clinic,Clinic,MoH,-32.663,27.8925,ZAF,EC
South Africa,Eastern Cape,Komga Town Clinic,Clinic,MoH,-32.587,27.884852,ZAF,EC
South Africa,Eastern Cape,Korsten CHC,Community Health Centre,MoH,-33.925087,25.57074,ZAF,EC
South Africa,Eastern Cape,Kotana Clinic,Clinic,MoH,-32.1487,28.14648,ZAF,EC
South Africa,Eastern Cape,Kotyana Clinic,Clinic,MoH,-32.0437,28.99938,ZAF,EC
South Africa,Eastern Cape,Krakeel Clinic,Clinic,MoH,-33.8143,23.72769,ZAF,EC
South Africa,Eastern Cape,Kroonvale Clinic,Clinic,MoH,-32.2392,24.54027,ZAF,EC
South Africa,Eastern Cape,Kruisfontein Clinic,Clinic,MoH,-34.0224,24.74633,ZAF,EC
South Africa,Eastern Cape,Kruisrivier Clinic,Clinic,MoH,-33.7668,25.34838,ZAF,EC
South Africa,Eastern Cape,KTC clinic,Clinic,MoH,-31.2082,29.798988,ZAF,EC
South Africa,Eastern Cape,Ku Bengu Clinic,Clinic,MoH,-32.1434,27.61732,ZAF,EC
South Africa,Eastern Cape,Kubusi Clinic,Clinic,MoH,-32.5943,27.41285,ZAF,EC
South Africa,Eastern Cape,Kungisizwe Clinic,Clinic,MoH,-30.8285,28.60494,ZAF,EC
South Africa,Eastern Cape,Kuyasa CHC,Community Health Centre,MoH,-32.0071,27.58245,ZAF,EC
South Africa,Eastern Cape,Kwadwesi Clinic,Clinic,MoH,-33.8481,25.51882,ZAF,EC
South Africa,Eastern Cape,Kwamagxaki Clinic,Clinic,MoH,-33.8402,25.5335,ZAF,EC
South Africa,Eastern Cape,Kwa-Mkholoza Clinic,Clinic,MoH,-32.3206,28.59504,ZAF,EC
South Africa,Eastern Cape,Kwa-Nonqubela Clinic,Clinic,MoH,-33.6568,26.42042,ZAF,EC
South Africa,Eastern Cape,Kwanonzame New Clinic,Clinic,MoH,-31.5166,24.99938,ZAF,EC
South Africa,Eastern Cape,Kwanonzame Old Clinic,Clinic,MoH,-31.5167,25.0091,ZAF,EC
South Africa,Eastern Cape,Kwa-Nonzwakazi Clinic,Clinic,MoH,-33.3173,26.09077,ZAF,EC
South Africa,Eastern Cape,Kwazakhele CHC,Community Health Centre,MoH,-33.8775,25.58605,ZAF,EC
South Africa,Eastern Cape,Kwazakhele Clinic,Clinic,MoH,-33.880899,25.59174,ZAF,EC
South Africa,Eastern Cape,Kwazamukucinga Clinic,Clinic,MoH,-32.9428,24.67789,ZAF,EC
South Africa,Eastern Cape,Kwazenzele Clinic,Clinic,MoH,-33.4392,25.97433,ZAF,EC
South Africa,Eastern Cape,Kwelera Clinic,Clinic,MoH,-32.8234,27.9628,ZAF,EC
South Africa,Eastern Cape,Lady Grey Hospital,District Hospital,MoH,-30.7128,27.21188,ZAF,EC
South Africa,Eastern Cape,Laetitia Bam CHC,Community Health Centre,MoH,-33.808,25.39833,ZAF,EC
South Africa,Eastern Cape,Lahlangubo Clinic Ngcobo,Clinic,MoH,-31.6614,27.8667,ZAF,EC
South Africa,Eastern Cape,Lahlangubo Clinic Queenstown,Clinic,MoH,-32.2013,26.69507,ZAF,EC
South Africa,Eastern Cape,Langeni Clinic,Clinic,MoH,-31.4086,28.54192,ZAF,EC
South Africa,Eastern Cape,Lanti Clinic,Clinic,MoH,-31.867,27.35901,ZAF,EC
South Africa,Eastern Cape,Lenye Clinic,Clinic,MoH,-32.7494,27.08574,ZAF,EC
South Africa,Eastern Cape,Lesseyton Clinic,Clinic,MoH,-31.8424,26.77731,ZAF,EC
South Africa,Eastern Cape,Libode Clinic,Clinic,MoH,-31.545,29.0167,ZAF,EC
South Africa,Eastern Cape,Likhetlane Clinic,Clinic,MoH,-30.357,28.52615,ZAF,EC
South Africa,Eastern Cape,Lingelihle Clinic,Clinic,MoH,-32.1806,25.62915,ZAF,EC
South Africa,Eastern Cape,Linton Grange Clinic,Clinic,MoH,-33.9434,25.51546,ZAF,EC
South Africa,Eastern Cape,Livingstone Hospital,Provincial Tertiary Hospital,MoH,-33.925099,25.57074,ZAF,EC
South Africa,Eastern Cape,Livingstone Paediatric Unit,Clinic,MoH,-33.925086,25.57074,ZAF,EC
South Africa,Eastern Cape,Lizo Ngcana Clinic,Clinic,MoH,-31.9216,26.86329,ZAF,EC
South Africa,Eastern Cape,Loerie Clinic,Clinic,MoH,-33.8641,25.02573,ZAF,EC
South Africa,Eastern Cape,Lota Clinic,Clinic,MoH,-31.8632,28.33632,ZAF,EC
South Africa,Eastern Cape,Lotana Clinic,Clinic,MoH,-31.2826,28.91647,ZAF,EC
South Africa,Eastern Cape,Lotusville Clinic,Clinic,MoH,-32.4723,24.04032,ZAF,EC
South Africa,Eastern Cape,Louterwater Clinic,Clinic,MoH,-33.7899,23.63105,ZAF,EC
South Africa,Eastern Cape,Lower Gungululu Clinic,Clinic,MoH,-31.4628,28.82191,ZAF,EC
South Africa,Eastern Cape,Lower Mncuncuzo Clinic,Clinic,MoH,-31.9083,27.59776,ZAF,EC
South Africa,Eastern Cape,Lower Regu Clinic,Clinic,MoH,-32.8181,26.95249,ZAF,EC
South Africa,Eastern Cape,Lower Seplan Clinic,Clinic,MoH,-31.7127,27.4433,ZAF,EC
South Africa,Eastern Cape,Lower Tsitsana Clinic,Clinic,MoH,-30.526,28.20802,ZAF,EC
South Africa,Eastern Cape,Lower Zingcuka Clinic,Clinic,MoH,-32.7191,27.09884,ZAF,EC
South Africa,Eastern Cape,Lubaleko Clinic,Clinic,MoH,-30.6949,29.36698,ZAF,EC
South Africa,Eastern Cape,Lubisi Clinic,Clinic,MoH,-31.7989,27.46015,ZAF,EC
South Africa,Eastern Cape,Ludalasi Clinic,Clinic,MoH,-31.6302,29.32684,ZAF,EC
South Africa,Eastern Cape,Lugangeni Clinic,Clinic,MoH,-30.8333,28.93437,ZAF,EC
South Africa,Eastern Cape,Lujizweni Clinic,Clinic,MoH,-31.7699,29.01789,ZAF,EC
South Africa,Eastern Cape,Lukhanyiso Clinic,Clinic,MoH,-33.5223,25.71037,ZAF,EC
South Africa,Eastern Cape,Lukhanyo Clinic,Clinic,MoH,-33.8171,25.45554,ZAF,EC
South Africa,Eastern Cape,Lulama Kama Clinic,Clinic,MoH,-32.7686,26.65496,ZAF,EC
South Africa,Eastern Cape,Lunga Kobese Clinic,Clinic,MoH,-33.8857,25.58083,ZAF,EC
South Africa,Eastern Cape,Lusikisiki Village Clinic Qaukeni,Clinic,MoH,-31.3741,29.57232,ZAF,EC
South Africa,Eastern Cape,Luthuli Clinic,Clinic,MoH,-32.1199,27.739151,ZAF,EC
South Africa,Eastern Cape,Lutshaya Clinic,Clinic,MoH,-31.3227,29.36059,ZAF,EC
South Africa,Eastern Cape,Lutubeni Clinic,Clinic,MoH,-31.9256,28.88256,ZAF,EC
South Africa,Eastern Cape,Luyengweni Clinic,Clinic,MoH,-30.6528,28.76937,ZAF,EC
South Africa,Eastern Cape,Luyolo NU 9 Clinic,Clinic,MoH,-32.9257,27.73391,ZAF,EC
South Africa,Eastern Cape,Lwandile Clinic,Clinic,MoH,-31.8671,29.20882,ZAF,EC
South Africa,Eastern Cape,Mabandla Clinic,Clinic,MoH,-33.8096,25.37862,ZAF,EC
South Africa,Eastern Cape,Macacuma Clinic,Clinic,MoH,-30.4574,27.35298,ZAF,EC
South Africa,Eastern Cape,Machibini Clinic Kwabhaca,Clinic,MoH,-30.7267,28.71708,ZAF,EC
South Africa,Eastern Cape,Machibini Clinic Queenstown,Clinic,MoH,-31.9205,27.02443,ZAF,EC
South Africa,Eastern Cape,Machubeni Clinic,Clinic,MoH,-31.5598,27.18929,ZAF,EC
South Africa,Eastern Cape,Macibe Clinic,Clinic,MoH,-32.478,28.28549,ZAF,EC
South Africa,Eastern Cape,Mackay's Nek Satellite Clinic,Satellite Clinic,MoH,-31.765,27.11444,ZAF,EC
South Africa,Eastern Cape,Maclear Clinic,Clinic,MoH,-31.0688,28.35162,ZAF,EC
South Africa,Eastern Cape,Maclear Hospital,District Hospital,MoH,-31.0759,28.34775,ZAF,EC
South Africa,Eastern Cape,Madlangala Clinic,Clinic,MoH,-30.1815,28.576871,ZAF,EC
South Africa,Eastern Cape,Madwaleni Hospital,District Hospital,MoH,-32.0958,28.87875,ZAF,EC
South Africa,Eastern Cape,Madzikane kaZulu Memorial Hospital,District Hospital,MoH,-30.9009,28.99562,ZAF,EC
South Africa,Eastern Cape,Magadla Clinic,Clinic,MoH,-30.338,28.682489,ZAF,EC
South Africa,Eastern Cape,Magwa Clinic,Clinic,MoH,-31.4184,29.67125,ZAF,EC
South Africa,Eastern Cape,Magwala Clinic,Clinic,MoH,-32.0069,27.54977,ZAF,EC
South Africa,Eastern Cape,Mahasana Clinic,Clinic,MoH,-32.3383,28.73444,ZAF,EC
South Africa,Eastern Cape,Mahlubini Clinic,Clinic,MoH,-32.0226,27.61034,ZAF,EC
South Africa,Eastern Cape,Mahlungulu Clinic KSD,Clinic,MoH,-31.5726,28.49288,ZAF,EC
South Africa,Eastern Cape,Mahlungulu Clinic Mhlontlo,Clinic,MoH,-31.0568,28.80237,ZAF,EC
South Africa,Eastern Cape,Majola Clinic,Clinic,MoH,-31.4977,29.31876,ZAF,EC
South Africa,Eastern Cape,Makhotyana CHC,Community Health Centre,MoH,-31.435,29.02291,ZAF,EC
South Africa,Eastern Cape,Makwantini Clinic,Clinic,MoH,-31.1059,29.99033,ZAF,EC
South Africa,Eastern Cape,Malabar Satellite Clinic,Satellite Clinic,MoH,-33.9213,25.53266,ZAF,EC
South Africa,Eastern Cape,Malangeni Clinic,Clinic,MoH,-31.3019,29.70136,ZAF,EC
South Africa,Eastern Cape,Maletswai Clinic,Clinic,MoH,-30.6907,26.69861,ZAF,EC
South Africa,Eastern Cape,Malongwana Clinic,Clinic,MoH,-31.0081,29.36362,ZAF,EC
South Africa,Eastern Cape,Malusi Clinic,Clinic,MoH,-31.5771,28.87056,ZAF,EC
South Africa,Eastern Cape,Maluti CHC,Community Health Centre,MoH,-30.2658,28.78891,ZAF,EC
South Africa,Eastern Cape,Mampondomiseni Clinic,Clinic,MoH,-31.6345,29.09056,ZAF,EC
South Africa,Eastern Cape,Mangcwanguleni Clinic,Clinic,MoH,-31.3343,29.16876,ZAF,EC
South Africa,Eastern Cape,Mangoloaneng Clinic,Clinic,MoH,-30.5157,28.46059,ZAF,EC
South Africa,Eastern Cape,Mangqamzeni Clinic,Clinic,MoH,-30.9934,29.07859,ZAF,EC
South Africa,Eastern Cape,Mantlaneni Clinic,Clinic,MoH,-31.2338,29.34253,ZAF,EC
South Africa,Eastern Cape,Mantusini Clinic,Clinic,MoH,-31.5752,29.29401,ZAF,EC
South Africa,Eastern Cape,Manzana Clinic,Clinic,MoH,-31.7374,28.00876,ZAF,EC
South Africa,Eastern Cape,Manzimahle Clinic,Clinic,MoH,-31.6246,27.556488,ZAF,EC
South Africa,Eastern Cape,Mapheleni Clinic,Clinic,MoH,-30.7844,29.25385,ZAF,EC
South Africa,Eastern Cape,Mapuzi Clinic,Clinic,MoH,-31.9593,29.13043,ZAF,EC
South Africa,Eastern Cape,Maqanyeni Clinic,Clinic,MoH,-31.6422,28.97314,ZAF,EC
South Africa,Eastern Cape,Maqashu Clinic,Clinic,MoH,-31.7437,27.33497,ZAF,EC
South Africa,Eastern Cape,Market Square Clinic,Clinic,MoH,-32.2503,24.53867,ZAF,EC
South Africa,Eastern Cape,Marselle Clinic,Clinic,MoH,-33.6793,26.63512,ZAF,EC
South Africa,Eastern Cape,Martje Venter Hospital Tarkastad,District Hospital,MoH,-32.0089,26.25884,ZAF,EC
South Africa,Eastern Cape,Masakhane Clinic Aberdeen,Clinic,MoH,-32.472699000000006,24.05254,ZAF,EC
South Africa,Eastern Cape,Masakhane Clinic Hankey,Clinic,MoH,-33.8277,24.87312,ZAF,EC
South Africa,Eastern Cape,Masakhane Clinic N Mandela Metro,Clinic,MoH,-33.9216,25.445159,ZAF,EC
South Africa,Eastern Cape,Masakhane Clinic Zwelitsha,Clinic,MoH,-32.9256,27.43245,ZAF,EC
South Africa,Eastern Cape,Masakhe Clinic,Clinic,MoH,-31.5544,26.56006,ZAF,EC
South Africa,Eastern Cape,Masele Clinic,Clinic,MoH,-32.9359,27.33074,ZAF,EC
South Africa,Eastern Cape,Masibulele Clinic,Clinic,MoH,-30.3592,27.44133,ZAF,EC
South Africa,Eastern Cape,Masincedane Clinic,Clinic,MoH,-32.6859,27.11363,ZAF,EC
South Africa,Eastern Cape,Masiphile Clinic,Clinic,MoH,-32.8543,27.789121,ZAF,EC
South Africa,Eastern Cape,Matatiele Community Clinic,Clinic,MoH,-30.3343,28.81461,ZAF,EC
South Africa,Eastern Cape,Matomela Clinic,Clinic,MoH,-33.2758,27.11408,ZAF,EC
South Africa,Eastern Cape,Matubeni Clinic,Clinic,MoH,-30.9651,29.16105,ZAF,EC
South Africa,Eastern Cape,Matyantya Clinic,Clinic,MoH,-31.7855,27.07183,ZAF,EC
South Africa,Eastern Cape,Mawusheni Clinic,Clinic,MoH,-31.9406,27.67016,ZAF,EC
South Africa,Eastern Cape,Max Madlingozi Clinic,Clinic,MoH,-33.8697,25.58297,ZAF,EC
South Africa,Eastern Cape,Maxwele Clinic,Clinic,MoH,-31.7045,28.73467,ZAF,EC
South Africa,Eastern Cape,Mbadango Clinic,Clinic,MoH,-31.1114,29.609559,ZAF,EC
South Africa,Eastern Cape,Mbalisweni Clinic,Clinic,MoH,-31.2684,29.11532,ZAF,EC
South Africa,Eastern Cape,Mbekweni CHC,Community Health Centre,MoH,-31.7201,28.68647,ZAF,EC
South Africa,Eastern Cape,Mbokotwana Clinic,Clinic,MoH,-31.2503,28.80663,ZAF,EC
South Africa,Eastern Cape,Mbotyi Clinic,Clinic,MoH,-31.4672,29.729636,ZAF,EC
South Africa,Eastern Cape,Mbulukweza Clinic,Clinic,MoH,-32.2326,27.71693,ZAF,EC
South Africa,Eastern Cape,Mcambalala Clinic,Clinic,MoH,-31.8841,27.49444,ZAF,EC
South Africa,Eastern Cape,Mcewula Clinic,Clinic,MoH,-31.5121,27.528417,ZAF,EC
South Africa,Eastern Cape,Mdanjelwa Clinic,Clinic,MoH,-31.8007,28.21853,ZAF,EC
South Africa,Eastern Cape,Mdeni Clinic,Clinic,MoH,-31.0344,28.779357,ZAF,EC
South Africa,Eastern Cape,Mdingi Clinic,Clinic,MoH,-32.8237,27.32969,ZAF,EC
South Africa,Eastern Cape,Mdyobe Clinic,Clinic,MoH,-31.1325,29.05043,ZAF,EC
South Africa,Eastern Cape,Meje Clinic,Clinic,MoH,-31.0502,29.8747,ZAF,EC
South Africa,Eastern Cape,Melani Clinic,Clinic,MoH,-32.7254,26.87394,ZAF,EC
South Africa,Eastern Cape,Melitafa Clinic,Clinic,MoH,-32.0714,28.68074,ZAF,EC
South Africa,Eastern Cape,Mevana Clinic,Clinic,MoH,-31.528,29.29607,ZAF,EC
South Africa,Eastern Cape,Mfundambini Clinic,Clinic,MoH,-30.8993,29.666544,ZAF,EC
South Africa,Eastern Cape,Mfundisweni Clinic,Clinic,MoH,-30.8983,29.51997,ZAF,EC
South Africa,Eastern Cape,Mgcwe Clinic,Clinic,MoH,-32.1396,28.202157,ZAF,EC
South Africa,Eastern Cape,Mgudu Clinic,Clinic,MoH,-31.4783,28.34694,ZAF,EC
South Africa,Eastern Cape,Mgwalana Clinic,Clinic,MoH,-32.7551,26.96204,ZAF,EC
South Africa,Eastern Cape,Mgwali Clinic,Clinic,MoH,-32.4611,27.60563,ZAF,EC
South Africa,Eastern Cape,Mgwenyane Clinic,Clinic,MoH,-31.5554,29.23329,ZAF,EC
South Africa,Eastern Cape,Mhlahlane Clinic,Clinic,MoH,-31.4184,28.54104,ZAF,EC
South Africa,Eastern Cape,Mhlakulo CHC,Community Health Centre,MoH,-31.4021,28.84407,ZAF,EC
South Africa,Eastern Cape,Mhlanga Clinic,Clinic,MoH,-31.4638,27.16111,ZAF,EC
South Africa,Eastern Cape,Mhlopekazi Clinic,Clinic,MoH,-31.7368,28.26916,ZAF,EC
South Africa,Eastern Cape,Mhlotsheni Clinic,Clinic,MoH,-30.8027,29.09093,ZAF,EC
South Africa,Eastern Cape,Mhlwazi Clinic,Clinic,MoH,-31.5137,27.988413,ZAF,EC
South Africa,Eastern Cape,Michausdal Clinic,Clinic,MoH,-32.1736,25.64495,ZAF,EC
South Africa,Eastern Cape,Middelburg Clinic,Clinic,MoH,-31.4952,25.00791,ZAF,EC
South Africa,Eastern Cape,Middle Street Clinic,Clinic,MoH,-33.7577,25.39107,ZAF,EC
South Africa,Eastern Cape,Middle Terrace Clinic,Clinic,MoH,-33.3003,26.536475,ZAF,EC
South Africa,Eastern Cape,Middle Terrace Satellite Clinic,Satellite Clinic,MoH,-33.300399000000006,26.53672,ZAF,EC
South Africa,Eastern Cape,Middle Terrace TLC Clinic,Clinic,MoH,-33.3004,26.53672,ZAF,EC
South Africa,Eastern Cape,Middledrift CHC,Community Health Centre,MoH,-32.8135,26.98832,ZAF,EC
South Africa,Eastern Cape,Midland Hospital,District Hospital,MoH,-32.2608,24.53619,ZAF,EC
South Africa,Eastern Cape,Midros Clinic,Clinic,MoH,-31.5029,25.02635,ZAF,EC
South Africa,Eastern Cape,Misgund Clinic,Clinic,MoH,-33.7631,23.50235,ZAF,EC
South Africa,Eastern Cape,Missionvale Clinic,Clinic,MoH,-33.8767,25.55003,ZAF,EC
South Africa,Eastern Cape,Mitford Clinic,Clinic,MoH,-31.9895,26.53048,ZAF,EC
South Africa,Eastern Cape,Mjanyana Clinic,Clinic,MoH,-31.8323,28.10611,ZAF,EC
South Africa,Eastern Cape,Mjanyana Hospital,District Hospital,MoH,-31.836,28.1038,ZAF,EC
South Africa,Eastern Cape,Mjika Clinic,Clinic,MoH,-31.4364,28.61004,ZAF,EC
South Africa,Eastern Cape,Mkambathi Clinic,Clinic,MoH,-31.2907,29.94895,ZAF,EC
South Africa,Eastern Cape,Mkanyisi Clinic,Clinic,MoH,-32.5875,27.8858,ZAF,EC
South Africa,Eastern Cape,Mkapusi Clinic,Clinic,MoH,-31.5951,27.10714,ZAF,EC
South Africa,Eastern Cape,Mkemane Clinic,Clinic,MoH,-30.668,29.01856,ZAF,EC
South Africa,Eastern Cape,Mnceba Clinic,Clinic,MoH,-30.8947,29.21214,ZAF,EC
South Africa,Eastern Cape,Mncotsho Clinic,Clinic,MoH,-32.9351,27.59984,ZAF,EC
South Africa,Eastern Cape,Mngungu Clinic,Clinic,MoH,-31.0562,30.03207,ZAF,EC
South Africa,Eastern Cape,Mntwana Clinic,Clinic,MoH,-30.9767,28.9237,ZAF,EC
South Africa,Eastern Cape,Mnyibashe Clinic,Clinic,MoH,-32.1293,27.80417,ZAF,EC
South Africa,Eastern Cape,Mnyolo Clinic,Clinic,MoH,-31.4945,28.28827,ZAF,EC
South Africa,Eastern Cape,Molteno Clinic,Clinic,MoH,-31.3959,26.36049,ZAF,EC
South Africa,Eastern Cape,Molteno Hospital,District Hospital,MoH,-31.3916,26.3555,ZAF,EC
South Africa,Eastern Cape,Mooiplaas Clinic,Clinic,MoH,-32.7376,28.05406,ZAF,EC
South Africa,Eastern Cape,Moore Street Clinic,Clinic,MoH,-33.0128,27.91553,ZAF,EC
South Africa,Eastern Cape,Moses Mabida Clinic,Clinic,MoH,-33.3973,25.48081,ZAF,EC
South Africa,Eastern Cape,Motherwell CHC,Community Health Centre,MoH,-33.8118,25.59794,ZAF,EC
South Africa,Eastern Cape,Motherwell NU 11 Clinic,Clinic,MoH,-33.7833,25.58959,ZAF,EC
South Africa,Eastern Cape,Motherwell NU 2 Clinic,Clinic,MoH,-33.8006,25.60322,ZAF,EC
South Africa,Eastern Cape,Motherwell NU 8 Clinic,Clinic,MoH,-33.8003,25.5898,ZAF,EC
South Africa,Eastern Cape,Mount Arthur Clinic,Clinic,MoH,-31.6864,27.15359,ZAF,EC
South Africa,Eastern Cape,Mount Ayliff Gateway Clinic,Clinic,MoH,-30.8051,29.35965,ZAF,EC
South Africa,Eastern Cape,Mount Ayliff Hospital,District Hospital,MoH,-30.8052,29.3596,ZAF,EC
South Africa,Eastern Cape,Mount Coke CHC,Community Health Centre,MoH,-32.9804,27.44252,ZAF,EC
South Africa,Eastern Cape,Mount Frere Gateway Clinic,Clinic,MoH,-30.9009,28.99564,ZAF,EC
South Africa,Eastern Cape,Mount Hargreaves Clinic,Clinic,MoH,-30.406,28.70661,ZAF,EC
South Africa,Eastern Cape,Mpame Clinic,Clinic,MoH,-32.0979,29.041834,ZAF,EC
South Africa,Eastern Cape,Mpeko Clinic,Clinic,MoH,-31.6236,28.63327,ZAF,EC
South Africa,Eastern Cape,Mpetsheni Clinic,Clinic,MoH,-30.9955,29.80192,ZAF,EC
South Africa,Eastern Cape,Mpharane Clinic,Clinic,MoH,-30.2639,28.47763,ZAF,EC
South Africa,Eastern Cape,Mpindweni Clinic,Clinic,MoH,-31.5117,28.781185,ZAF,EC
South Africa,Eastern Cape,Mpongo Clinic,Clinic,MoH,-33.1576,27.52628,ZAF,EC
South Africa,Eastern Cape,Mpoza Clinic Lusikisiki,Clinic,MoH,-31.2363,29.55721,ZAF,EC
South Africa,Eastern Cape,Mpoza Clinic Mount Frere,Clinic,MoH,-30.7318,29.06932,ZAF,EC
South Africa,Eastern Cape,Mpozolo Clinic,Clinic,MoH,-32.1816,28.77911,ZAF,EC
South Africa,Eastern Cape,Mpukane Clinic,Clinic,MoH,-32.331,27.87466,ZAF,EC
South Africa,Eastern Cape,Mpunzana Clinic,Clinic,MoH,-31.8038,28.66743,ZAF,EC
South Africa,Eastern Cape,Mqambeli Clinic,Clinic,MoH,-32.4203,28.10819,ZAF,EC
South Africa,Eastern Cape,Mqanduli CHC,Community Health Centre,MoH,-31.8235,28.76501,ZAF,EC
South Africa,Eastern Cape,Mqhekezweni Clinic,Clinic,MoH,-31.7335,28.467604,ZAF,EC
South Africa,Eastern Cape,Mqhele Clinic,Clinic,MoH,-31.9942,28.89198,ZAF,EC
South Africa,Eastern Cape,Mqokolweni Clinic,Clinic,MoH,-31.1219,28.549333,ZAF,EC
South Africa,Eastern Cape,Msendo Clinic,Clinic,MoH,-32.2709,28.7894,ZAF,EC
South Africa,Eastern Cape,Msobomvu Clinic,Clinic,MoH,-32.7005,26.85278,ZAF,EC
South Africa,Eastern Cape,Mtakatye Clinic,Clinic,MoH,-31.8464,29.245292,ZAF,EC
South Africa,Eastern Cape,Mtambalala Clinic,Clinic,MoH,-31.325,29.35293,ZAF,EC
South Africa,Eastern Cape,Mthatha Defence Force Clinic,Clinic,MoH,-31.5706,28.654069,ZAF,EC
South Africa,Eastern Cape,Mthatha Gateway Clinic,Clinic,MoH,-31.590287999999997,28.76593,ZAF,EC
South Africa,Eastern Cape,Mthatha General Hospital,Regional Hospital,MoH,-31.5903,28.76593,ZAF,EC
South Africa,Eastern Cape,Mthatha Immunisation Pool Clinic,Clinic,MoH,-31.590286999999996,28.76593,ZAF,EC
South Africa,Eastern Cape,Mtingwevu Clinic,Clinic,MoH,-31.747,27.62817,ZAF,EC
South Africa,Eastern Cape,Mtombe Clinic,Clinic,MoH,-33.0545,27.33463,ZAF,EC
South Africa,Eastern Cape,Mtyholo Clinic,Clinic,MoH,-32.9919,27.35656,ZAF,EC
South Africa,Eastern Cape,Musong Clinic,Clinic,MoH,-30.491,27.56074,ZAF,EC
South Africa,Eastern Cape,Mvenyane Clinic,Clinic,MoH,-30.5525,29.03634,ZAF,EC
South Africa,Eastern Cape,Mwaca Clinic,Clinic,MoH,-30.6399,29.23817,ZAF,EC
South Africa,Eastern Cape,Mxalanga Clinic,Clinic,MoH,-32.7398,27.36593,ZAF,EC
South Africa,Eastern Cape,Mxhelo Clinic,Clinic,MoH,-32.7946,26.73477,ZAF,EC
South Africa,Eastern Cape,Mzamomhle Clinic Albert,Clinic,MoH,-31.0072,26.33522,ZAF,EC
South Africa,Eastern Cape,Mzamomhle Clinic Bedford,Clinic,MoH,-32.6903,26.0966,ZAF,EC
South Africa,Eastern Cape,Mzintlava Clinic,Clinic,MoH,-31.4059,29.510791,ZAF,EC
South Africa,Eastern Cape,Mziwabantu Clinic,Clinic,MoH,-32.578,25.128,ZAF,EC
South Africa,Eastern Cape,Mzongwana Clinic,Clinic,MoH,-30.1677,29.05207,ZAF,EC
South Africa,Eastern Cape,Ncambele Clinic,Clinic,MoH,-31.5013,28.73609,ZAF,EC
South Africa,Eastern Cape,Ncedolwethu Clinic,Clinic,MoH,-31.3295,27.82309,ZAF,EC
South Africa,Eastern Cape,Nceduluntu Clinic,Clinic,MoH,-31.3774,26.35395,ZAF,EC
South Africa,Eastern Cape,Ncembu Clinic,Clinic,MoH,-31.3516,28.40669,ZAF,EC
South Africa,Eastern Cape,Ncera Clinic,Clinic,MoH,-33.1156,27.59237,ZAF,EC
South Africa,Eastern Cape,Ncizele Clinic,Clinic,MoH,-32.593,28.43316,ZAF,EC
South Africa,Eastern Cape,Ncora Clinic,Clinic,MoH,-31.8185,27.74082,ZAF,EC
South Africa,Eastern Cape,Ndabakazi Clinic,Clinic,MoH,-32.3478,28.03817,ZAF,EC
South Africa,Eastern Cape,Ndanya Clinic,Clinic,MoH,-31.5724,28.96171,ZAF,EC
South Africa,Eastern Cape,Ndawenzima Clinic,Clinic,MoH,-30.9095,29.361821,ZAF,EC
South Africa,Eastern Cape,Ndela Clinic,Clinic,MoH,-30.9479,29.713473,ZAF,EC
South Africa,Eastern Cape,Ndevana Clinic,Clinic,MoH,-32.9098,27.50695,ZAF,EC
South Africa,Eastern Cape,Ndibela Clinic,Clinic,MoH,-31.8338,28.41716,ZAF,EC
South Africa,Eastern Cape,Ndofela Clinic,Clinic,MoH,-30.3838,27.43182,ZAF,EC
South Africa,Eastern Cape,Ndonga Clinic,Clinic,MoH,-31.6249,27.389111,ZAF,EC
South Africa,Eastern Cape,Ndwayana Clinic,Clinic,MoH,-33.1604,26.872317,ZAF,EC
South Africa,Eastern Cape,Needs Camp Clinic,Clinic,MoH,-33.0055,27.64703,ZAF,EC
South Africa,Eastern Cape,Nelson Mandela Academic Hospital,National Central Hospital,MoH,-31.5881,28.764234,ZAF,EC
South Africa,Eastern Cape,Nessie Knight Gateway Clinic,Clinic,MoH,-31.0091,28.68223,ZAF,EC
South Africa,Eastern Cape,Nessie Knight Hospital,District Hospital,MoH,-31.009099,28.68223,ZAF,EC
South Africa,Eastern Cape,New Brighton CHC,Community Health Centre,MoH,-33.9086,25.58545,ZAF,EC
South Africa,Eastern Cape,New Brighton Clinic,Clinic,MoH,-33.9049,25.59775,ZAF,EC
South Africa,Eastern Cape,New Rest Clinic,Clinic,MoH,-31.904,26.87168,ZAF,EC
South Africa,Eastern Cape,Newlands Clinic,Clinic,MoH,-32.8778,27.74907,ZAF,EC
South Africa,Eastern Cape,Newtown Clinic,Clinic,MoH,-32.774,26.61334,ZAF,EC
South Africa,Eastern Cape,NG Dlukulu Clinic,Clinic,MoH,-33.2789,26.5777,ZAF,EC
South Africa,Eastern Cape,Ngangelizwe CHC,Community Health Centre,MoH,-31.6014,28.7999,ZAF,EC
South Africa,Eastern Cape,Ngcengane Clinic,Clinic,MoH,-31.5379,28.60434,ZAF,EC
South Africa,Eastern Cape,Ngceza Clinic,Clinic,MoH,-31.9747,27.73446,ZAF,EC
South Africa,Eastern Cape,Ngcobo CHC,Community Health Centre,MoH,-31.6785,28.005490000000002,ZAF,EC
South Africa,Eastern Cape,Ngcolora Clinic,Clinic,MoH,-31.3363,28.8955,ZAF,EC
South Africa,Eastern Cape,Ngcoya Clinic,Clinic,MoH,-31.3887,29.3365,ZAF,EC
South Africa,Eastern Cape,Ngcuka Satellite Clinic,Satellite Clinic,MoH,-31.7285,27.253763,ZAF,EC
South Africa,Eastern Cape,Ngcwanguba CHC,Community Health Centre,MoH,-31.919,29.03239,ZAF,EC
South Africa,Eastern Cape,Ngonyama CHC,Community Health Centre,MoH,-31.6815,26.93369,ZAF,EC
South Africa,Eastern Cape,Ngqanda Satellite Clinic,Satellite Clinic,MoH,-31.6727,27.201655,ZAF,EC
South Africa,Eastern Cape,Ngqeleni Clinic,Clinic,MoH,-31.62,28.84,ZAF,EC
South Africa,Eastern Cape,Ngqungqu Clinic,Clinic,MoH,-31.8654,28.81762,ZAF,EC
South Africa,Eastern Cape,Ngqusi Clinic,Clinic,MoH,-32.4882,28.40364,ZAF,EC
South Africa,Eastern Cape,Ngqwarha Clinic,Clinic,MoH,-31.7339,28.777967,ZAF,EC
South Africa,Eastern Cape,Ngqwaru Clinic,Clinic,MoH,-31.8552,27.7849,ZAF,EC
South Africa,Eastern Cape,Ngqwele Clinic,Clinic,MoH,-32.9049,27.217463,ZAF,EC
South Africa,Eastern Cape,Ngwemnyama Clinic,Clinic,MoH,-31.255,29.01602,ZAF,EC
South Africa,Eastern Cape,Ngwenya Clinic,Clinic,MoH,-31.9495,28.76681,ZAF,EC
South Africa,Eastern Cape,Ngxabangu Clinic,Clinic,MoH,-31.8452,27.610322,ZAF,EC
South Africa,Eastern Cape,Ngxaza Clinic,Clinic,MoH,-31.2148,28.50639,ZAF,EC
South Africa,Eastern Cape,Nier Clinic,Clinic,MoH,-33.3579,27.24207,ZAF,EC
South Africa,Eastern Cape,Nieu-Bethesda Clinic,Clinic,MoH,-31.8685,24.55342,ZAF,EC
South Africa,Eastern Cape,Njwaxa Clinic,Clinic,MoH,-32.8728,26.9056,ZAF,EC
South Africa,Eastern Cape,Nkanga Clinic,Clinic,MoH,-31.4641,29.1744,ZAF,EC
South Africa,Eastern Cape,Nkanunu Clinic,Clinic,MoH,-31.7599,29.23929,ZAF,EC
South Africa,Eastern Cape,Nkanya Clinic,Clinic,MoH,-32.152,28.95035,ZAF,EC
South Africa,Eastern Cape,Nkozo Clinic,Clinic,MoH,-31.2017,29.43002,ZAF,EC
South Africa,Eastern Cape,Nkumandeni Clinic,Clinic,MoH,-31.7301,29.04818,ZAF,EC
South Africa,Eastern Cape,Nkwenkwana Clinic,Clinic,MoH,-31.7716,28.20929,ZAF,EC
South Africa,Eastern Cape,Nkwenkwezi Clinic,Clinic,MoH,-33.5773,26.89252,ZAF,EC
South Africa,Eastern Cape,Nobuhle NU 8 Clinic,Clinic,MoH,-32.9411,27.72508,ZAF,EC
South Africa,Eastern Cape,Nolita Clinic,Clinic,MoH,-31.6998,28.94637,ZAF,EC
South Africa,Eastern Cape,Nolukhanyo Clinic,Clinic,MoH,-33.4937,26.83122,ZAF,EC
South Africa,Eastern Cape,Nomakhwezi Makhenyane Clinic,Clinic,MoH,-32.6929,26.31339,ZAF,EC
South Africa,Eastern Cape,Nomangesi Jayiya Clinic,Clinic,MoH,-33.8205,25.38403,ZAF,EC
South Africa,Eastern Cape,Nomonde Clinic,Clinic,MoH,-31.3865,26.35892,ZAF,EC
South Africa,Eastern Cape,Nompumelelo Clinic,Clinic,MoH,-31.4716,27.34702,ZAF,EC
South Africa,Eastern Cape,Nompumelelo Gateway Clinic,Clinic,MoH,-33.2069,27.13042,ZAF,EC
South Africa,Eastern Cape,Nompumelelo Hospital  Peddie,District Hospital,MoH,-33.2092,27.13244,ZAF,EC
South Africa,Eastern Cape,Nomzamo CHC,Community Health Centre,MoH,-31.913,26.97074,ZAF,EC
South Africa,Eastern Cape,Noncampa Clinic,Clinic,MoH,-32.9074,27.29926,ZAF,EC
South Africa,Eastern Cape,Nontsikelelo Biko Clinic,Clinic,MoH,-31.4816,29.07367,ZAF,EC
South Africa,Eastern Cape,Nontyatyambo CHC,Community Health Centre,MoH,-32.9472,27.75458,ZAF,EC
South Africa,Eastern Cape,Norah Clinic,Clinic,MoH,-33.2278,27.30872,ZAF,EC
South Africa,Eastern Cape,Nosekeni Nongaphi Mandela Clinic,Clinic,MoH,NA,NA,ZAF,EC
South Africa,Eastern Cape,Nozuko Clinic,Clinic,MoH,-32.3235,28.16744,ZAF,EC
South Africa,Eastern Cape,Nqabara Clinic,Clinic,MoH,-32.2466,28.72081,ZAF,EC
South Africa,Eastern Cape,Nqabeni Clinic,Clinic,MoH,-32.1188,28.58493,ZAF,EC
South Africa,Eastern Cape,Nqadu Clinic Mbhashe,Clinic,MoH,-32.2357,28.42111,ZAF,EC
South Africa,Eastern Cape,Nqamakwe CHC,Community Health Centre,MoH,-32.2082,27.93613,ZAF,EC
South Africa,Eastern Cape,Nqancule Clinic,Clinic,MoH,-32.3521,27.79323,ZAF,EC
South Africa,Eastern Cape,Nqanda A Clinic,Clinic,MoH,-31.7502,28.92359,ZAF,EC
South Africa,Eastern Cape,Nququ Clinic,Clinic,MoH,-31.8121,27.61321,ZAF,EC
South Africa,Eastern Cape,Nqwathi Clinic,Clinic,MoH,-31.7096,28.358399,ZAF,EC
South Africa,Eastern Cape,Ntaba ka Ndoda Clinic,Clinic,MoH,-32.8183,27.10702,ZAF,EC
South Africa,Eastern Cape,Ntafufu Clinic,Clinic,MoH,-31.4973,29.52724,ZAF,EC
South Africa,Eastern Cape,Ntapane Clinic,Clinic,MoH,-31.5964,28.84865,ZAF,EC
South Africa,Eastern Cape,Ntibane Clinic,Clinic,MoH,-31.8034,29.17939,ZAF,EC
South Africa,Eastern Cape,Ntlabeni Clinic,Clinic,MoH,-30.7422,28.92245,ZAF,EC
South Africa,Eastern Cape,Ntlangaza Clinic,Clinic,MoH,-31.8271,28.87181,ZAF,EC
South Africa,Eastern Cape,Ntlenzi Clinic,Clinic,MoH,-30.9508,29.612515,ZAF,EC
South Africa,Eastern Cape,Ntlola Clinic,Clinic,MoH,-30.5979,29.07986,ZAF,EC
South Africa,Eastern Cape,Ntseshe Clinic,Clinic,MoH,-32.0942,28.09913,ZAF,EC
South Africa,Eastern Cape,Ntshabeni Clinic,Clinic,MoH,-31.5192,28.66785,ZAF,EC
South Africa,Eastern Cape,Ntshele Clinic,Clinic,MoH,-31.6726,28.72257,ZAF,EC
South Africa,Eastern Cape,Ntshentshe Clinic,Clinic,MoH,-30.7076,29.53514,ZAF,EC
South Africa,Eastern Cape,Ntshingeni Clinic,Clinic,MoH,-32.0475,27.425195,ZAF,EC
South Africa,Eastern Cape,Ntsimba Clinic,Clinic,MoH,-31.859199,28.21192,ZAF,EC
South Africa,Eastern Cape,Ntsitho Clinic,Clinic,MoH,-31.8592,28.21192,ZAF,EC
South Africa,Eastern Cape,Ntsizwa Clinic,Clinic,MoH,-30.7381,29.24517,ZAF,EC
South Africa,Eastern Cape,NU 12 Clinic,Clinic,MoH,-32.9328,27.71785,ZAF,EC
South Africa,Eastern Cape,NU 13 Clinic,Clinic,MoH,-32.9414,27.70068,ZAF,EC
South Africa,Eastern Cape,NU 16 Clinic,Clinic,MoH,-32.959,27.69318,ZAF,EC
South Africa,Eastern Cape,NU 17 Clinic,Clinic,MoH,-32.9489,27.68623,ZAF,EC
South Africa,Eastern Cape,Nxotwe Clinic Qumbu,Clinic,MoH,-31.161,28.73077,ZAF,EC
South Africa,Eastern Cape,Nyalasa Clinic,Clinic,MoH,-31.6908,27.67961,ZAF,EC
South Africa,Eastern Cape,Nyandeni Clinic,Clinic,MoH,-31.4555,28.97198,ZAF,EC
South Africa,Eastern Cape,Nyaniso Clinic,Clinic,MoH,-30.5588,28.733564,ZAF,EC
South Africa,Eastern Cape,Nyhwara Clinic,Clinic,MoH,-31.9441,28.37329,ZAF,EC
South Africa,Eastern Cape,Nzulwini Clinic,Clinic,MoH,-32.0324,29.10749,ZAF,EC
South Africa,Eastern Cape,Old Bunting Clinic,Clinic,MoH,-31.6723,29.18154,ZAF,EC
South Africa,Eastern Cape,Openshaw Clinic,Clinic,MoH,-33.1582,27.4473,ZAF,EC
South Africa,Eastern Cape,Oviston Satellite Clinic,Satellite Clinic,MoH,-30.778,25.7972,ZAF,EC
South Africa,Eastern Cape,Oxton Clinic,Clinic,MoH,-32.2279,26.70609,ZAF,EC
South Africa,Eastern Cape,Paballong Clinic,Clinic,MoH,-30.4205,28.50627,ZAF,EC
South Africa,Eastern Cape,Pakamisa Clinic,Clinic,MoH,-32.9358,27.45253,ZAF,EC
South Africa,Eastern Cape,Pal 1 Clinic,Clinic,MoH,-33.5666,26.89159,ZAF,EC
South Africa,Eastern Cape,Pal 2 Clinic,Clinic,MoH,-33.5792,26.88387,ZAF,EC
South Africa,Eastern Cape,Palmerton Clinic,Clinic,MoH,-31.3221,29.49067,ZAF,EC
South Africa,Eastern Cape,Palmietfontein Clinic,Clinic,MoH,-30.4307,27.53343,ZAF,EC
South Africa,Eastern Cape,Park Centre Clinic,Clinic,MoH,-33.7639,25.40144,ZAF,EC
South Africa,Eastern Cape,Parkvale Clinic,Clinic,MoH,-31.9211,26.87389,ZAF,EC
South Africa,Eastern Cape,Patensie Town Satellite Clinic,Satellite Clinic,MoH,-33.7589,24.81069,ZAF,EC
South Africa,Eastern Cape,Paterson Clinic,Clinic,MoH,-33.4403,25.97368,ZAF,EC
South Africa,Eastern Cape,Peddie Extension Clinic,Clinic,MoH,-33.1998,27.1041,ZAF,EC
South Africa,Eastern Cape,Peelton Clinic,Clinic,MoH,-32.7727,27.49782,ZAF,EC
South Africa,Eastern Cape,Pefferville Clinic,Clinic,MoH,-33.0119,27.88081,ZAF,EC
South Africa,Eastern Cape,Pelandaba Clinic,Clinic,MoH,-30.5994,27.60077,ZAF,EC
South Africa,Eastern Cape,Pellsrus Clinic,Clinic,MoH,-34.0588,24.9217,ZAF,EC
South Africa,Eastern Cape,Perksdale Clinic,Clinic,MoH,-32.8925,27.07595,ZAF,EC
South Africa,Eastern Cape,Petros Jobane Clinic,Clinic,MoH,-32.9676,27.88499,ZAF,EC
South Africa,Eastern Cape,Phahlakazi Clinic,Clinic,MoH,-31.7699,29.275463,ZAF,EC
South Africa,Eastern Cape,Phakamile Clinic,Clinic,MoH,-31.9368,28.56669,ZAF,EC
South Africa,Eastern Cape,Philani Clinic Cradock,Clinic,MoH,-32.182,25.64048,ZAF,EC
South Africa,Eastern Cape,Philani Clinic Emalahleni,Clinic,MoH,-31.7199,27.19939,ZAF,EC
South Africa,Eastern Cape,Philani Clinic King William's Town,Clinic,MoH,-32.7002,27.55359,ZAF,EC
South Africa,Eastern Cape,Philani Clinic Queenstown,Clinic,MoH,-31.9108,26.87025,ZAF,EC
South Africa,Eastern Cape,Philani NU 1 Clinic,Clinic,MoH,-32.9384,27.77033,ZAF,EC
South Africa,Eastern Cape,Pikholi Clinic,Clinic,MoH,-33.1881,26.96416,ZAF,EC
South Africa,Eastern Cape,Pilani Clinic,Clinic,MoH,-31.9056,29.1473,ZAF,EC
South Africa,Eastern Cape,Pirie Clinic,Clinic,MoH,-32.7924,27.24578,ZAF,EC
South Africa,Eastern Cape,Plumstead Clinic,Clinic,MoH,-32.0262,27.79333,ZAF,EC
South Africa,Eastern Cape,Poly Clinic,Clinic,MoH,-30.6929,26.70762,ZAF,EC
South Africa,Eastern Cape,Port Alfred Clinic,Clinic,MoH,-33.5924,26.88717,ZAF,EC
South Africa,Eastern Cape,Port Alfred Hospital,District Hospital,MoH,-33.5953,26.88312,ZAF,EC
South Africa,Eastern Cape,Port Elizabeth Provincial Hospital,Provincial Tertiary Hospital,MoH,-33.9584,25.59982,ZAF,EC
South Africa,Eastern Cape,Port St Johns CHC,Community Health Centre,MoH,-31.6323,29.54569,ZAF,EC
South Africa,Eastern Cape,Potsdam Clinic,Clinic,MoH,-32.9811,27.64419,ZAF,EC
South Africa,Eastern Cape,Pricesdale Clinic,Clinic,MoH,-32.2477,26.72643,ZAF,EC
South Africa,Eastern Cape,Prinsvale Clinic,Clinic,MoH,-33.027,24.325,ZAF,EC
South Africa,Eastern Cape,Punzana Clinic,Clinic,MoH,-33.049,27.3669,ZAF,EC
South Africa,Eastern Cape,Qamata Clinic,Clinic,MoH,-31.9746,27.43482,ZAF,EC
South Africa,Eastern Cape,Qandu Clinic,Clinic,MoH,-31.733,29.27919,ZAF,EC
South Africa,Eastern Cape,Qanqu Clinic,Clinic,MoH,-30.9188,28.73301,ZAF,EC
South Africa,Eastern Cape,Qaqa Clinic,Clinic,MoH,-31.0204,29.2179,ZAF,EC
South Africa,Eastern Cape,Qasa Clinic,Clinic,MoH,-31.0268,29.41773,ZAF,EC
South Africa,Eastern Cape,Qaukeni Clinic,Clinic,MoH,-31.1641,29.34669,ZAF,EC
South Africa,Eastern Cape,Qebe Clinic,Clinic,MoH,-31.5122,28.0356,ZAF,EC
South Africa,Eastern Cape,Qeto Clinic,Clinic,MoH,-33.326,27.098,ZAF,EC
South Africa,Eastern Cape,Qhiba Clinic,Clinic,MoH,-31.4385,27.72345,ZAF,EC
South Africa,Eastern Cape,Qibira Clinic,Clinic,MoH,-32.9455,27.03459,ZAF,EC
South Africa,Eastern Cape,Qina Clinic,Clinic,MoH,-32.4548,28.18251,ZAF,EC
South Africa,Eastern Cape,Qitsi Clinic,Clinic,MoH,-31.9187,27.92868,ZAF,EC
South Africa,Eastern Cape,Qobo Clinic,Clinic,MoH,-30.7349,29.705825,ZAF,EC
South Africa,Eastern Cape,Qokolweni Clinic,Clinic,MoH,-31.7021,28.7795,ZAF,EC
South Africa,Eastern Cape,Qolombane Clinic Qumbu,Clinic,MoH,-31.4208,28.75845,ZAF,EC
South Africa,Eastern Cape,Qolora-By-Sea Clinic,Clinic,MoH,-32.6335,28.41432,ZAF,EC
South Africa,Eastern Cape,Qombolo Clinic,Clinic,MoH,-32.0024,27.66446,ZAF,EC
South Africa,Eastern Cape,Qoqodala Clinic,Clinic,MoH,-31.7159,26.95022,ZAF,EC
South Africa,Eastern Cape,Queen Nonesi Clinic,Clinic,MoH,-31.821,27.01094,ZAF,EC
South Africa,Eastern Cape,Queen Noti Clinic,Clinic,MoH,-31.1614,28.54875,ZAF,EC
South Africa,Eastern Cape,Queen's Mercy Clinic,Clinic,MoH,-30.2544,28.56883,ZAF,EC
South Africa,Eastern Cape,Qumanco Clinic,Clinic,MoH,-31.7859,27.92353,ZAF,EC
South Africa,Eastern Cape,Qumanco J Tribal Clinic,Clinic,MoH,-31.7938,27.81937,ZAF,EC
South Africa,Eastern Cape,Qumbu CHC,Community Health Centre,MoH,-31.1672,28.86993,ZAF,EC
South Africa,Eastern Cape,Qunu Clinic,Clinic,MoH,-31.7714,28.61708,ZAF,EC
South Africa,Eastern Cape,Qurhu Clinic,Clinic,MoH,-33.0025,27.54388,ZAF,EC
South Africa,Eastern Cape,Qwaninga Clinic,Clinic,MoH,-32.3983,28.62071,ZAF,EC
South Africa,Eastern Cape,Qwidlana Clinic,Clinic,MoH,-30.7988,28.708077,ZAF,EC
South Africa,Eastern Cape,Qwiliqwili Clinic,Clinic,MoH,-32.2836,27.736927,ZAF,EC
South Africa,Eastern Cape,Rabula Clinic,Clinic,MoH,-32.7486,27.16602,ZAF,EC
South Africa,Eastern Cape,Raglan Road Clinic,Clinic,MoH,-33.3068,26.54034,ZAF,EC
South Africa,Eastern Cape,Raymond Mhlaba Clinic,Clinic,MoH,-33.2003,26.14859,ZAF,EC
South Africa,Eastern Cape,Rhodes Satellite Clinic,Satellite Clinic,MoH,-30.7983,27.95999,ZAF,EC
South Africa,Eastern Cape,Rietbron Clinic,Clinic,MoH,-33.1395,23.6142,ZAF,EC
South Africa,Eastern Cape,Robert Mbelekana Clinic,Clinic,MoH,-33.1659,26.91626,ZAF,EC
South Africa,Eastern Cape,Robert Mjobo Clinic,Clinic,MoH,-30.7128,27.21183,ZAF,EC
South Africa,Eastern Cape,Rocklands Clinic,Clinic,MoH,-32.0168,26.47956,ZAF,EC
South Africa,Eastern Cape,Rodana Clinic,Clinic,MoH,-31.9146,27.2014,ZAF,EC
South Africa,Eastern Cape,Rode Clinic,Clinic,MoH,-30.8257,29.13832,ZAF,EC
South Africa,Eastern Cape,Rolweni Clinic,Clinic,MoH,-30.5593,28.81228,ZAF,EC
South Africa,Eastern Cape,Rosedale CHC,Community Health Centre,MoH,-33.7368,25.37618,ZAF,EC
South Africa,Eastern Cape,Rwantsana Clinic,Clinic,MoH,-31.8449,27.313392,ZAF,EC
South Africa,Eastern Cape,Rwarwa Clinic,Clinic,MoH,-32.745,26.90983,ZAF,EC
South Africa,Eastern Cape,Sabalele Clinic,Clinic,MoH,-32.1065,27.45574,ZAF,EC
South Africa,Eastern Cape,Sada Clinic,Clinic,MoH,-32.2028,26.81038,ZAF,EC
South Africa,Eastern Cape,Sandbult Clinic,Clinic,MoH,-31.0003,26.329916,ZAF,EC
South Africa,Eastern Cape,Sanddrif Clinic,Clinic,MoH,-33.9901,23.9695,ZAF,EC
South Africa,Eastern Cape,Sangoni Clinic,Clinic,MoH,-31.6906,28.77252,ZAF,EC
South Africa,Eastern Cape,SAWAS Memorial Hospital Jansenville,District Hospital,MoH,-32.9422,24.66203,ZAF,EC
South Africa,Eastern Cape,Schauderville Clinic,Clinic,MoH,-33.93308400000001,25.57539,ZAF,EC
South Africa,Eastern Cape,Sebeni Clinic,Clinic,MoH,-32.389443,28.596207,ZAF,EC
South Africa,Eastern Cape,Seqhobong Clinic,Clinic,MoH,-30.4353,28.42479,ZAF,EC
South Africa,Eastern Cape,Settlers Day Hospital,Community Health Centre,MoH,-33.3077,26.5335,ZAF,EC
South Africa,Eastern Cape,Settlers Hospital,District Hospital,MoH,-33.3024,26.51464,ZAF,EC
South Africa,Eastern Cape,Seymour Clinic,Clinic,MoH,-32.5507,26.7662,ZAF,EC
South Africa,Eastern Cape,Shawbury Clinic,Clinic,MoH,-31.231,28.95821,ZAF,EC
South Africa,Eastern Cape,Shepherds Hope Clinic,Clinic,MoH,-30.346800000000002,28.59292,ZAF,EC
South Africa,Eastern Cape,Sheshegu Clinic,Clinic,MoH,-32.9013,26.785,ZAF,EC
South Africa,Eastern Cape,Shiloh Clinic,Clinic,MoH,-32.2003,26.82721,ZAF,EC
South Africa,Eastern Cape,Shornville Clinic,Clinic,MoH,-32.8974,27.3988,ZAF,EC
South Africa,Eastern Cape,Sidwadweni Clinic,Clinic,MoH,-31.3564,28.83616,ZAF,EC
South Africa,Eastern Cape,Sidwell Satellite Clinic,Satellite Clinic,MoH,-33.9331,25.57539,ZAF,EC
South Africa,Eastern Cape,Sifonondile Clinic,Clinic,MoH,-31.4913,27.64003,ZAF,EC
South Africa,Eastern Cape,Sigidi Clinic,Clinic,MoH,-30.9424,29.351461,ZAF,EC
South Africa,Eastern Cape,Silvertown Clinic,Clinic,MoH,-33.8265,25.40224,ZAF,EC
South Africa,Eastern Cape,Sinebhongo Clinic,Clinic,MoH,-32.9818,27.85745,ZAF,EC
South Africa,Eastern Cape,Sinqumeni Clinic,Clinic,MoH,-31.4181,28.263015,ZAF,EC
South Africa,Eastern Cape,Sipetu Gateway Clinic,Clinic,MoH,-31.0917,29.18725,ZAF,EC
South Africa,Eastern Cape,Sipetu Hospital,District Hospital,MoH,-31.0917,29.18731,ZAF,EC
South Africa,Eastern Cape,Sitebe Clinic,Clinic,MoH,-31.8829,28.58088,ZAF,EC
South Africa,Eastern Cape,Soga Clinic,Clinic,MoH,-32.0292,28.73821,ZAF,EC
South Africa,Eastern Cape,Sonwabile Clinic,Clinic,MoH,-31.0745,28.36102,ZAF,EC
South Africa,Eastern Cape,Sonwabo Zandile Clinic,Clinic,MoH,-30.9666,27.59404,ZAF,EC
South Africa,Eastern Cape,SOS Clinic,Clinic,MoH,-31.6222,28.745361,ZAF,EC
South Africa,Eastern Cape,Soto Clinic,Clinic,MoH,-32.6985,28.13394,ZAF,EC
South Africa,Eastern Cape,Soweto Clinic,Clinic,MoH,-33.8599,25.56761,ZAF,EC
South Africa,Eastern Cape,Springrove Clinic,Clinic,MoH,-32.1105,26.46334,ZAF,EC
South Africa,Eastern Cape,Springs Clinic,Clinic,MoH,-32.4598,28.07916,ZAF,EC
South Africa,Eastern Cape,SS Gida Gateway Clinic,Clinic,MoH,-32.6745,27.14364,ZAF,EC
South Africa,Eastern Cape,SS Gida Hospital,District Hospital,MoH,-32.6745,27.1435,ZAF,EC
South Africa,Eastern Cape,St Augustine's Clinic,Clinic,MoH,-31.2242,28.60248,ZAF,EC
South Africa,Eastern Cape,St Barnabas Gateway Clinic,Clinic,MoH,-31.5642,29.11617,ZAF,EC
South Africa,Eastern Cape,St Barnabas Hospital,District Hospital,MoH,-31.564199,29.11617,ZAF,EC
South Africa,Eastern Cape,St Elizabeth's Gateway Clinic,Clinic,MoH,-31.3599,29.56554,ZAF,EC
South Africa,Eastern Cape,St Elizabeth's Hospital,Regional Hospital,MoH,-31.3598,29.56532,ZAF,EC
South Africa,Eastern Cape,St Francis Bay Clinic,Clinic,MoH,-34.1746,24.81781,ZAF,EC
South Africa,Eastern Cape,St Francis Hospital,District Hospital,MoH,-30.6887,26.69921,ZAF,EC
South Africa,Eastern Cape,St Lucy's Gateway Clinic,Clinic,MoH,-31.3004,28.63081,ZAF,EC
South Africa,Eastern Cape,St Lucy's Hospital,District Hospital,MoH,-31.3007,28.62983,ZAF,EC
South Africa,Eastern Cape,St Mark's Clinic,Clinic,MoH,-32.0127,27.40759,ZAF,EC
South Africa,Eastern Cape,St Matthew's Clinic,Clinic,MoH,-32.6477,27.18104,ZAF,EC
South Africa,Eastern Cape,St Michael's Clinic,Clinic,MoH,-30.4713,27.44145,ZAF,EC
South Africa,Eastern Cape,St Patrick's Gateway Clinic,Clinic,MoH,-30.8653,29.85164,ZAF,EC
South Africa,Eastern Cape,St Patrick's Hospital,District Hospital,MoH,-30.8654,29.85162,ZAF,EC
South Africa,Eastern Cape,St Thomas Clinic,Clinic,MoH,-32.6989,27.37067,ZAF,EC
South Africa,Eastern Cape,Stanford Terrace Clinic,Clinic,MoH,-31.5862,28.78321,ZAF,EC
South Africa,Eastern Cape,Station Hill Clinic,Clinic,MoH,-33.5817,26.89301,ZAF,EC
South Africa,Eastern Cape,Sterkspruit Town Clinic,Clinic,MoH,-30.533199,27.35337,ZAF,EC
South Africa,Eastern Cape,Sterkstroom Clinic,Clinic,MoH,-31.5531,26.55336,ZAF,EC
South Africa,Eastern Cape,Sterkstroom Hospital,District Hospital,MoH,-31.5531,26.55338,ZAF,EC
South Africa,Eastern Cape,Steynsburg Clinic,Clinic,MoH,-31.2959,25.82442,ZAF,EC
South Africa,Eastern Cape,Steynsburg Hospital,District Hospital,MoH,-31.2932,25.813211,ZAF,EC
South Africa,Eastern Cape,Steytler Satellite Clinic,Satellite Clinic,MoH,-33.933083,25.57539,ZAF,EC
South Africa,Eastern Cape,Stoney Croft Satellite Clinic,Satellite Clinic,MoH,-31.6831,27.31765,ZAF,EC
South Africa,Eastern Cape,Stormsriver Satellite Clinic,Satellite Clinic,MoH,-33.9948,23.88756,ZAF,EC
South Africa,Eastern Cape,Stow Road Clinic,Clinic,MoH,-33.7731,25.40637,ZAF,EC
South Africa,Eastern Cape,Stutterheim Clinic,Clinic,MoH,-32.5694,27.42647,ZAF,EC
South Africa,Eastern Cape,Stutterheim Hospital,District Hospital,MoH,-32.5713,27.419427,ZAF,EC
South Africa,Eastern Cape,Sundays Valley  Hospital Kirkwood,District Hospital,MoH,-33.3947,25.44001,ZAF,EC
South Africa,Eastern Cape,Sunduza Clinic,Clinic,MoH,-30.6155,27.39112,ZAF,EC
South Africa,Eastern Cape,Sundwana Clinic,Clinic,MoH,-32.0956,28.5514,ZAF,EC
South Africa,Eastern Cape,Swartkops Satellite Clinic,Satellite Clinic,MoH,-33.8809,25.59174,ZAF,EC
South Africa,Eastern Cape,Swartwater Clinic,Clinic,MoH,-31.6665,26.83138,ZAF,EC
South Africa,Eastern Cape,Sweetwaters Clinic,Clinic,MoH,-32.9015,27.41565,ZAF,EC
South Africa,Eastern Cape,Sydenham Satellite Clinic,Satellite Clinic,MoH,-33.9366,25.60241,ZAF,EC
South Africa,Eastern Cape,Tabankulu CHC,Community Health Centre,MoH,-30.9633,29.29951,ZAF,EC
South Africa,Eastern Cape,Tabase Clinic,Clinic,MoH,-31.5718,28.5706,ZAF,EC
South Africa,Eastern Cape,Tafalofefe Gateway Clinic,Clinic,MoH,-32.4292,28.47317,ZAF,EC
South Africa,Eastern Cape,Tafalofefe Hospital,District Hospital,MoH,-32.4102,28.51829,ZAF,EC
South Africa,Eastern Cape,Taleni Clinic,Clinic,MoH,-32.161,28.38973,ZAF,EC
South Africa,Eastern Cape,Tamara Clinic,Clinic,MoH,-33.0001,27.23607,ZAF,EC
South Africa,Eastern Cape,Tanga Clinic,Clinic,MoH,-32.2529,28.18506,ZAF,EC
South Africa,Eastern Cape,Tarkastad Clinic,Clinic,MoH,-32.0099,26.25936,ZAF,EC
South Africa,Eastern Cape,Tayler Bequest Gateway Clinic Matatiele,Clinic,MoH,-30.3473,28.82105,ZAF,EC
South Africa,Eastern Cape,Tayler Bequest Hospital Matatiele,District Hospital,MoH,-30.3327,28.80195,ZAF,EC
South Africa,Eastern Cape,Taylor Bequest Gateway Clinic Elundini,Clinic,MoH,-30.6892,28.50994,ZAF,EC
South Africa,Eastern Cape,Taylor Bequest Hospital Elundini,District Hospital,MoH,-30.6894,28.50961,ZAF,EC
South Africa,Eastern Cape,Tela Clinic,Clinic,MoH,-30.759,29.45606,ZAF,EC
South Africa,Eastern Cape,Tembelihle Clinic,Clinic,MoH,-31.5275,27.70009,ZAF,EC
South Africa,Eastern Cape,Tembisa NU 7 Clinic,Clinic,MoH,-32.953,27.72368,ZAF,EC
South Africa,Eastern Cape,Tentergate Clinic,Clinic,MoH,-32.0907,26.46209,ZAF,EC
South Africa,Eastern Cape,Thabachicha Clinic,Clinic,MoH,-30.3631,28.39098,ZAF,EC
South Africa,Eastern Cape,Thanduxolo Clinic,Clinic,MoH,-33.7945,25.57816,ZAF,EC
South Africa,Eastern Cape,Thembalesizwe Clinic,Clinic,MoH,-32.4727,24.05254,ZAF,EC
South Africa,Eastern Cape,Thembalethu Clinic Buffalo City,Clinic,MoH,-32.8872,27.789093,ZAF,EC
South Africa,Eastern Cape,Thembalethu Clinic Sakhisizwe,Clinic,MoH,-31.3376,27.86087,ZAF,EC
South Africa,Eastern Cape,Thembisa Clinic,Clinic,MoH,-31.021,26.3188,ZAF,EC
South Africa,Eastern Cape,Theo Claasen Satellite Clinic,Satellite Clinic,MoH,-33.884699000000005,25.51816,ZAF,EC
South Africa,Eastern Cape,Thornhill CHC,Community Health Centre,MoH,-31.9872,26.61368,ZAF,EC
South Africa,Eastern Cape,Thornhill Clinic,Clinic,MoH,-33.8909,25.147596,ZAF,EC
South Africa,Eastern Cape,Thozamile Madakana Clinic,Clinic,MoH,-32.7737,26.64749,ZAF,EC
South Africa,Eastern Cape,Tina Falls Clinic,Clinic,MoH,-31.2197,29.02021,ZAF,EC
South Africa,Eastern Cape,Tombo CHC,Community Health Centre,MoH,-31.6274,29.38288,ZAF,EC
South Africa,Eastern Cape,Tora Clinic,Clinic,MoH,-31.8843,28.15048,ZAF,EC
South Africa,Eastern Cape,Trafalgar Clinic,Clinic,MoH,-33.9419,25.60289,ZAF,EC
South Africa,Eastern Cape,Tsakana Clinic,Clinic,MoH,-31.8478,27.468639,ZAF,EC
South Africa,Eastern Cape,Tsawana Clinic,Clinic,MoH,-30.807,29.91565,ZAF,EC
South Africa,Eastern Cape,Tsembeyi Clinic,Clinic,MoH,-31.5858,27.01401,ZAF,EC
South Africa,Eastern Cape,Tsengiwe Clinic,Clinic,MoH,-31.5732,27.657083,ZAF,EC
South Africa,Eastern Cape,Tshabo Clinic,Clinic,MoH,-32.9273,27.54748,ZAF,EC
South Africa,Eastern Cape,Tshangana Clinic,Clinic,MoH,-33.8911,25.599240000000002,ZAF,EC
South Africa,Eastern Cape,Tshatshu Clinic,Clinic,MoH,-32.9168,27.45184,ZAF,EC
South Africa,Eastern Cape,Tshezi Clinic,Clinic,MoH,-31.958,29.092837,ZAF,EC
South Africa,Eastern Cape,Tshungwana Clinic,Clinic,MoH,-30.9776,29.02733,ZAF,EC
South Africa,Eastern Cape,Tsilitwa Clinic,Clinic,MoH,-30.9798,28.74038,ZAF,EC
South Africa,Eastern Cape,Tsitsikamma Clinic,Clinic,MoH,-32.2269,26.56985,ZAF,EC
South Africa,Eastern Cape,Tsolo Clinic,Clinic,MoH,-31.3071,28.75855,ZAF,EC
South Africa,Eastern Cape,Tsomo Village Clinic,Clinic,MoH,-32.0383,27.82084,ZAF,EC
South Africa,Eastern Cape,Tutura Clinic,Clinic,MoH,-32.3796,28.23459,ZAF,EC
South Africa,Eastern Cape,Twecu Clinic,Clinic,MoH,-33.0675,27.25407,ZAF,EC
South Africa,Eastern Cape,Twee Riviere Clinic,Clinic,MoH,-33.8396,23.89247,ZAF,EC
South Africa,Eastern Cape,Tyali Clinic,Clinic,MoH,-32.5754,28.32852,ZAF,EC
South Africa,Eastern Cape,Tyamzashe FP Clinic,Clinic,MoH,-32.8464,27.44079,ZAF,EC
South Africa,Eastern Cape,Tyata Clinic,Clinic,MoH,-33.185,27.16,ZAF,EC
South Africa,Eastern Cape,Tyelebana Clinic,Clinic,MoH,-31.6902,28.44021,ZAF,EC
South Africa,Eastern Cape,Tylden Clinic,Clinic,MoH,-32.115,27.07048,ZAF,EC
South Africa,Eastern Cape,Tyutyu Clinic,Clinic,MoH,-32.8424,27.45701,ZAF,EC
South Africa,Eastern Cape,Tyutyu Village Clinic,Clinic,MoH,-32.8334,27.38691,ZAF,EC
South Africa,Eastern Cape,Ugie Clinic,Clinic,MoH,-31.1967,28.23143,ZAF,EC
South Africa,Eastern Cape,Uitenhage Hospital,District Hospital,MoH,-33.7415,25.40679,ZAF,EC
South Africa,Eastern Cape,Ulundi Clinic,Clinic,MoH,-30.644,28.20936,ZAF,EC
South Africa,Eastern Cape,Umasizakhe Clinic,Clinic,MoH,-32.2502,24.54153,ZAF,EC
South Africa,Eastern Cape,Umlamli Gateway Clinic,Clinic,MoH,-30.5604,27.47457,ZAF,EC
South Africa,Eastern Cape,Umlamli Hospital,District Hospital,MoH,-30.560399,27.47457,ZAF,EC
South Africa,Eastern Cape,Umnga Flats Clinic,Clinic,MoH,-31.4386,28.36893,ZAF,EC
South Africa,Eastern Cape,Umtumase Clinic,Clinic,MoH,-30.5651,28.543328,ZAF,EC
South Africa,Eastern Cape,Union Street Clinic,Clinic,MoH,-32.7201,25.58314,ZAF,EC
South Africa,Eastern Cape,Upper Lafuta Clinic,Clinic,MoH,-31.6316,27.62406,ZAF,EC
South Africa,Eastern Cape,Upper Mncuncuzo Clinic,Clinic,MoH,-31.9089,27.54861,ZAF,EC
South Africa,Eastern Cape,Upper Ncera Clinic,Clinic,MoH,-32.7317,26.92783,ZAF,EC
South Africa,Eastern Cape,Upper Xongora Clinic,Clinic,MoH,-31.673,28.52188,ZAF,EC
South Africa,Eastern Cape,Vaalbank Clinic,Clinic,MoH,-31.6083,26.92519,ZAF,EC
South Africa,Eastern Cape,Veeplaas Clinic,Clinic,MoH,-33.8537,25.55072,ZAF,EC
South Africa,Eastern Cape,Venterstad Clinic,Clinic,MoH,-30.7782,25.79686,ZAF,EC
South Africa,Eastern Cape,Vera Barford Clinic,Clinic,MoH,-32.7346,25.59144,ZAF,EC
South Africa,Eastern Cape,Victoria Gateway Clinic,Clinic,MoH,-32.775199,26.84678,ZAF,EC
South Africa,Eastern Cape,Victoria Hospital,District Hospital,MoH,-32.7752,26.84678,ZAF,EC
South Africa,Eastern Cape,Victoria Street Clinic,Clinic,MoH,-33.3324,24.34143,ZAF,EC
South Africa,Eastern Cape,Virginia Shumane Clinic,Clinic,MoH,-33.2961,26.54646,ZAF,EC
South Africa,Eastern Cape,Vukukhanye Gateway Clinic,Clinic,MoH,-32.0956,28.87835,ZAF,EC
South Africa,Eastern Cape,Vuyolwethu Clinic,Clinic,MoH,-33.3326,24.34141,ZAF,EC
South Africa,Eastern Cape,Walmer 14th Avenue Clinic,Clinic,MoH,-33.9823,25.56297,ZAF,EC
South Africa,Eastern Cape,War Memorial Clinic,Clinic,MoH,-32.7928,26.83078,ZAF,EC
South Africa,Eastern Cape,Wartburg Clinic,Clinic,MoH,-32.4447,27.42067,ZAF,EC
South Africa,Eastern Cape,Washington Clinic,Clinic,MoH,-32.9922,27.01054,ZAF,EC
South Africa,Eastern Cape,Welcomewood Clinic,Clinic,MoH,-33.0091,27.59793,ZAF,EC
South Africa,Eastern Cape,Wells Estate Clinic,Clinic,MoH,-33.8227,25.63385,ZAF,EC
South Africa,Eastern Cape,Wesley Clinic,Clinic,MoH,-33.3226,27.33689,ZAF,EC
South Africa,Eastern Cape,West End CHC,Community Health Centre,MoH,-33.8847,25.51816,ZAF,EC
South Africa,Eastern Cape,Westbank Nursery School Satellite Clinic,Satellite Clinic,MoH,-33.0318,27.91022,ZAF,EC
South Africa,Eastern Cape,Weston Clinic,Clinic,MoH,-33.8484,24.86541,ZAF,EC
South Africa,Eastern Cape,Whittlesea CHC,Community Health Centre,MoH,-32.1729,26.82082,ZAF,EC
South Africa,Eastern Cape,Wilhelm Stahl Hospital Middelburg,District Hospital,MoH,-31.4917,24.99351,ZAF,EC
South Africa,Eastern Cape,Willowmore Clinic,Clinic,MoH,-33.2921,23.48714,ZAF,EC
South Africa,Eastern Cape,Willowmore Hospital,District Hospital,MoH,-33.3004,23.46757,ZAF,EC
South Africa,Eastern Cape,Willowvale CHC,Community Health Centre,MoH,-32.2654,28.49823,ZAF,EC
South Africa,Eastern Cape,Wilo Clinic,Clinic,MoH,-31.8936,28.94321,ZAF,EC
South Africa,Eastern Cape,Wittebergen Clinic,Clinic,MoH,-30.6023,27.10606,ZAF,EC
South Africa,Eastern Cape,Wongalethu Clinic,Clinic,MoH,-33.0267,24.32549,ZAF,EC
South Africa,Eastern Cape,Woodlands Clinic,Clinic,MoH,-34.0031,24.16501,ZAF,EC
South Africa,Eastern Cape,Xhora CHC,Community Health Centre,MoH,-31.9678,28.68389,ZAF,EC
South Africa,Eastern Cape,Xhwili Clinic,Clinic,MoH,-31.7352,28.567990000000002,ZAF,EC
South Africa,Eastern Cape,Xonxa Clinic,Clinic,MoH,-31.8489,27.08949,ZAF,EC
South Africa,Eastern Cape,Xopozo Clinic,Clinic,MoH,-30.9883,29.460376,ZAF,EC
South Africa,Eastern Cape,Xume Clinic,Clinic,MoH,-32.0595,27.9032,ZAF,EC
South Africa,Eastern Cape,Xurana Clinic,Clinic,MoH,-31.2348,29.494853,ZAF,EC
South Africa,Eastern Cape,Yonda Clinic,Clinic,MoH,-32.2842,26.67465,ZAF,EC
South Africa,Eastern Cape,Zabasa Clinic,Clinic,MoH,-31.4464,28.27157,ZAF,EC
South Africa,Eastern Cape,Zadungeni Clinic,Clinic,MoH,-31.5612,27.89382,ZAF,EC
South Africa,Eastern Cape,Zalara Clinic,Clinic,MoH,-32.5953,27.10132,ZAF,EC
South Africa,Eastern Cape,Zanempilo Clinic East London,Clinic,MoH,-32.9545,27.99148,ZAF,EC
South Africa,Eastern Cape,Zanempilo Clinic Zwelitsha,Clinic,MoH,-32.801,27.41786,ZAF,EC
South Africa,Eastern Cape,Zazulwana Clinic,Clinic,MoH,-32.2946,28.16056,ZAF,EC
South Africa,Eastern Cape,Zenethemba Clinic,Clinic,MoH,-30.4874,27.40608,ZAF,EC
South Africa,Eastern Cape,Zidindi Clinic,Clinic,MoH,-31.9897,29.03222,ZAF,EC
South Africa,Eastern Cape,Zigodlo Clinic,Clinic,MoH,-32.9835,27.06527,ZAF,EC
South Africa,Eastern Cape,Zihlahleni Clinic,Clinic,MoH,-32.8623,27.201076,ZAF,EC
South Africa,Eastern Cape,Zikhova Clinic,Clinic,MoH,-33.2292,27.47831,ZAF,EC
South Africa,Eastern Cape,Zingisa Clinic,Clinic,MoH,-33.8662,25.58265,ZAF,EC
South Africa,Eastern Cape,Zingisa NU 5 Clinic,Clinic,MoH,-32.9565,27.73869,ZAF,EC
South Africa,Eastern Cape,Zingquthu Clinic,Clinic,MoH,-31.7514,26.86089,ZAF,EC
South Africa,Eastern Cape,Zitatele Clinic,Clinic,MoH,-31.554,28.832123,ZAF,EC
South Africa,Eastern Cape,Zitulele Gateway Clinic,Clinic,MoH,-32.0505,29.09164,ZAF,EC
South Africa,Eastern Cape,Zitulele Hospital,District Hospital,MoH,-32.0505,29.09162,ZAF,EC
South Africa,Eastern Cape,Zola Clinic,Clinic,MoH,-32.0115,26.24756,ZAF,EC
South Africa,Eastern Cape,Zulu Clinic,Clinic,MoH,-30.9835,29.30279,ZAF,EC
South Africa,Eastern Cape,Zwelakhe Dalasile CHC,Community Health Centre,MoH,-31.6481,28.24387,ZAF,EC
South Africa,Eastern Cape,Zwelebhunga Clinic,Clinic,MoH,-31.9987,28.72919,ZAF,EC
South Africa,Eastern Cape,Zweledinga Clinic,Clinic,MoH,-32.322,26.67521,ZAF,EC
South Africa,Eastern Cape,Zwelichumile Clinic,Clinic,MoH,-31.8929,28.627522,ZAF,EC
South Africa,Eastern Cape,Zwelitsha Zone 5 Clinic,Clinic,MoH,-32.9241,27.42365,ZAF,EC
South Africa,Eastern Cape,Zwide Clinic,Clinic,MoH,-33.868,25.555168,ZAF,EC
South Africa,Free State,Aandrus Clinic,Clinic,MoH,-29.1255,26.1952,ZAF,FS
South Africa,Free State,Albert Luthuli Memorial Clinic,Clinic,MoH,-27.8362,26.3668,ZAF,FS
South Africa,Free State,Allanridge Clinic,Clinic,MoH,-27.7533,26.64478,ZAF,FS
South Africa,Free State,AM Kruger Clinic,Clinic,MoH,-27.873,26.68533,ZAF,FS
South Africa,Free State,Amelia Clinic,Clinic,MoH,NA,NA,ZAF,FS
South Africa,Free State,Ango Maseola Marikana Clinic,Clinic,MoH,-25.675382,27.234854,ZAF,FS
South Africa,Free State,Bainsvlei Clinic,Clinic,MoH,-29.0645,26.12987,ZAF,FS
South Africa,Free State,Bakenpark Clinic,Clinic,MoH,-28.2185,28.33417,ZAF,FS
South Africa,Free State,Batho Clinic,Clinic,MoH,-29.1389,26.22728,ZAF,FS
South Africa,Free State,Bayswater Clinic,Clinic,MoH,-29.0847,26.24407,ZAF,FS
South Africa,Free State,Bethlehem Clinic,Clinic,MoH,-28.2327,28.30792,ZAF,FS
South Africa,Free State,Bethlehem Youth Clinic,Clinic,MoH,-28.233,28.308,ZAF,FS
South Africa,Free State,Bloemspruit Clinic,Clinic,MoH,-29.1373,26.27142,ZAF,FS
South Africa,Free State,Blue Gum Bush Clinic,Clinic,MoH,-28.4825,28.84905,ZAF,FS
South Africa,Free State,Bohlokong Clinic,Clinic,MoH,-28.2242,28.31608,ZAF,FS
South Africa,Free State,Boiketlo Clinic,Clinic,MoH,-28.5496,28.82607,ZAF,FS
South Africa,Free State,Boithusong Clinic,Clinic,MoH,-27.8552,26.76047,ZAF,FS
South Africa,Free State,Boitumelo Hospital,Regional Hospital,MoH,-27.644,27.213172,ZAF,FS
South Africa,Free State,Boitumelo Senekal Clinic,Clinic,MoH,-28.3436,27.6313,ZAF,FS
South Africa,Free State,Bolata Clinic,Clinic,MoH,-28.5638,28.7958,ZAF,FS
South Africa,Free State,Bongani Hospital,Regional Hospital,MoH,-27.9531,26.7862,ZAF,FS
South Africa,Free State,Bophelong Allanridge Clinic,Clinic,MoH,-27.7769,26.65688,ZAF,FS
South Africa,Free State,Bophelong Botshabelo Clinic,Clinic,MoH,-29.2778,26.73307,ZAF,FS
South Africa,Free State,Bophelong Kroonstad Clinic,Clinic,MoH,-27.6348,27.18923,ZAF,FS
South Africa,Free State,Bophelong Odendaalsrus Clinic,Clinic,MoH,-27.8591,26.77652,ZAF,FS
South Africa,Free State,Bophelong Petrusburg CHC,Community Health Centre,MoH,-29.119,25.41824,ZAF,FS
South Africa,Free State,Bophelong Vrede Clinic,Clinic,MoH,-27.4183,29.17362,ZAF,FS
South Africa,Free State,Bophelong Welkom Clinic,Clinic,MoH,-27.969,26.83533,ZAF,FS
South Africa,Free State,Borwa Clinic,Clinic,MoH,-29.1962,27.03003,ZAF,FS
South Africa,Free State,Boshof Clinic,Clinic,MoH,-28.5504,25.2516,ZAF,FS
South Africa,Free State,Bothaville Clinic,Clinic,MoH,-27.3925,26.61942,ZAF,FS
South Africa,Free State,Botshabelo Hospital,District Hospital,MoH,-29.2325,26.71572,ZAF,FS
South Africa,Free State,Botshabelo Industrial Clinic,Clinic,MoH,-29.2041,26.70412,ZAF,FS
South Africa,Free State,Brentpark Clinic,Clinic,MoH,-27.6685,27.1937,ZAF,FS
South Africa,Free State,Bronville Clinic,Clinic,MoH,-27.9965,26.81323,ZAF,FS
South Africa,Free State,Central Park Clinic,Clinic,MoH,-29.1207,26.22297,ZAF,FS
South Africa,Free State,Clocolan Clinic,Clinic,MoH,-28.909999,27.57423,ZAF,FS
South Africa,Free State,DA Maleho Clinic,Clinic,MoH,-28.2914,26.15387,ZAF,FS
South Africa,Free State,Daniel Ngatane Clinic,Clinic,MoH,-29.2326,26.727579,ZAF,FS
South Africa,Free State,Dealesville Clinic,Clinic,MoH,-28.6717,25.76528,ZAF,FS
South Africa,Free State,Deneysville Clinic,Clinic,MoH,-26.8911,28.09717,ZAF,FS
South Africa,Free State,Dewetsdorp One Stop Clinic,Clinic,MoH,-29.5852,26.66885,ZAF,FS
South Africa,Free State,Diamond Diamant Hospital,District Hospital,MoH,-29.7603,25.42315,ZAF,FS
South Africa,Free State,Dihlabeng Gateway Clinic,Clinic,MoH,-28.2332,28.3197,ZAF,FS
South Africa,Free State,Dihlabeng Hospital,Regional Hospital,MoH,-28.2331,28.3197,ZAF,FS
South Africa,Free State,Dinaane Clinic,Clinic,MoH,-29.2275,26.83132,ZAF,FS
South Africa,Free State,Dinkweng Clinic,Clinic,MoH,-28.6282,28.89662,ZAF,FS
South Africa,Free State,Dr JS Moroka Hospital,District Hospital,MoH,-29.2045,26.83468,ZAF,FS
South Africa,Free State,Dr Pedro Memorial Clinic,Clinic,MoH,-29.2079,26.68177,ZAF,FS
South Africa,Free State,Duke Street Clinic,Clinic,MoH,-28.6973,26.4638,ZAF,FS
South Africa,Free State,Elizabeth Ross Hospital,District Hospital,MoH,-28.589,28.81755,ZAF,FS
South Africa,Free State,Elrich Park Clinic,Clinic,MoH,-29.1521,26.212835,ZAF,FS
South Africa,Free State,Embekweni Hospital,District Hospital,MoH,-30.2921,27.07542,ZAF,FS
South Africa,Free State,Ethembeni Clinic,Clinic,MoH,-29.3933,24.99175,ZAF,FS
South Africa,Free State,Eva Mota Clinic,Clinic,MoH,-28.6334,28.86838,ZAF,FS
South Africa,Free State,Excelsior Clinic,Clinic,MoH,-28.9329,27.0566,ZAF,FS
South Africa,Free State,Fateng Tse Ntsho Clinic,Clinic,MoH,-28.299,27.96736,ZAF,FS
South Africa,Free State,Fauna Clinic,Clinic,MoH,-29.1655,26.18987,ZAF,FS
South Africa,Free State,Fauresmith Clinic,Clinic,MoH,-29.7446,25.30937,ZAF,FS
South Africa,Free State,Fezi Ngumbentombi Hospital,District Hospital,MoH,-26.8014,27.82757,ZAF,FS
South Africa,Free State,Fichardtpark Clinic,Clinic,MoH,-29.1438,26.1818,ZAF,FS
South Africa,Free State,Flora Clinic,Clinic,MoH,-30.593,25.49487,ZAF,FS
South Africa,Free State,Frankfort Clinic,Clinic,MoH,-27.2777,28.49248,ZAF,FS
South Africa,Free State,Freedom Square Clinic,Clinic,MoH,-29.1738,26.25365,ZAF,FS
South Africa,Free State,Gabriel Dichabe Clinic,Clinic,MoH,-29.1147,26.21535,ZAF,FS
South Africa,Free State,Gaongalelwe Clinic,Clinic,MoH,-29.1683,26.80102,ZAF,FS
South Africa,Free State,Geneva Clinic,Clinic,MoH,-27.8552,26.75535,ZAF,FS
South Africa,Free State,Hani Park Clinic,Clinic,MoH,-27.9871,26.82359,ZAF,FS
South Africa,Free State,Harrismith Clinic,Clinic,MoH,-28.2726,29.12667,ZAF,FS
South Africa,Free State,Harry Gwala Botshabelo Clinic,Clinic,MoH,-29.2876,26.71105,ZAF,FS
South Africa,Free State,Harry Gwala Sasolburg Clinic,Clinic,MoH,-26.85,27.87897,ZAF,FS
South Africa,Free State,Heidedal CHC,Community Health Centre,MoH,-29.1416,26.24637,ZAF,FS
South Africa,Free State,Heidedal Clinic,Clinic,MoH,-29.142,26.246,ZAF,FS
South Africa,Free State,Heilbron Clinic,Clinic,MoH,-27.2903,27.9681,ZAF,FS
South Africa,Free State,Heilbron PHC Inside Clinic,Clinic,MoH,-27.29,27.968,ZAF,FS
South Africa,Free State,Helpmekaar Satellite Clinic,Satellite Clinic,MoH,-27.75143,26.1151,ZAF,FS
South Africa,Free State,Hennenman Clinic,Clinic,MoH,-27.9724,27.01997,ZAF,FS
South Africa,Free State,Highway Junction Clinic,Clinic,MoH,-28.2885,29.13155,ZAF,FS
South Africa,Free State,Hill Street Clinic,Clinic,MoH,-27.6631,27.24027,ZAF,FS
South Africa,Free State,Hilton Clinic,Clinic,MoH,-29.1073,26.23833,ZAF,FS
South Africa,Free State,Hlohlolwane Clinic,Clinic,MoH,-28.9119,27.55222,ZAF,FS
South Africa,Free State,Hobhouse Clinic,Clinic,MoH,-29.5214,27.14745,ZAF,FS
South Africa,Free State,Hoopstad Clinic,Clinic,MoH,-27.8323,25.91473,ZAF,FS
South Africa,Free State,Hope CHC,Community Health Centre,MoH,-28.0817,27.14397,ZAF,FS
South Africa,Free State,Hostel nr 1 Clinic,Clinic,MoH,-29.1341,26.23828,ZAF,FS
South Africa,Free State,Hydropark Clinic,Clinic,MoH,-30.593,25.494,ZAF,FS
South Africa,Free State,Ikaheng Clinic,Clinic,MoH,-29.1681,27.45985,ZAF,FS
South Africa,Free State,Ikgomotseng Clinic,Clinic,MoH,-28.7361,26.10485,ZAF,FS
South Africa,Free State,Intabazwe Clinic,Clinic,MoH,-28.2529,29.09673,ZAF,FS
South Africa,Free State,Itemoheng Hospital,District Hospital,MoH,-28.3274,27.60552,ZAF,FS
South Africa,Free State,Itumeleng Botshabelo Clinic,Clinic,MoH,-29.2854,26.71965,ZAF,FS
South Africa,Free State,Itumeleng Clarens Clinic,Clinic,MoH,-28.5225,28.42125,ZAF,FS
South Africa,Free State,Itumeleng Jagersfontein Clinic,Clinic,MoH,-29.7669,25.43485,ZAF,FS
South Africa,Free State,Jacobsdal Clinic,Clinic,MoH,-29.1299,24.77157,ZAF,FS
South Africa,Free State,Jazzman Mokhothu Clinic,Clinic,MoH,-29.2572,26.7139,ZAF,FS
South Africa,Free State,John Daniel Newberry Hospital,District Hospital,MoH,-28.91,27.57423,ZAF,FS
South Africa,Free State,Kagisanong Clinic,Clinic,MoH,-29.1962,26.24503,ZAF,FS
South Africa,Free State,Kamohelo Clinic,Clinic,MoH,-28.5311,27.00165,ZAF,FS
South Africa,Free State,Kananelo CHC,Community Health Centre,MoH,-27.0047,27.36813,ZAF,FS
South Africa,Free State,Katleho Hospital,District Hospital,MoH,-28.1105,26.85798,ZAF,FS
South Africa,Free State,Kgalala Clinic,Clinic,MoH,-28.9888,26.80427,ZAF,FS
South Africa,Free State,Kganya CHC,Community Health Centre,MoH,-27.2342,27.58748,ZAF,FS
South Africa,Free State,Kgotso Clinic,Clinic,MoH,-27.5553,27.66367,ZAF,FS
South Africa,Free State,Kgotsong Bothaville Clinic,Clinic,MoH,-27.3902,26.64423,ZAF,FS
South Africa,Free State,Khosatsana Masetjhaba Clinic,Clinic,MoH,NA,NA,ZAF,FS
South Africa,Free State,Khotalong Clinic,Clinic,MoH,-28.1318,26.90292,ZAF,FS
South Africa,Free State,Klipfontein Clinic,Clinic,MoH,-29.5228,26.98295,ZAF,FS
South Africa,Free State,K-Maile Clinic,Clinic,MoH,-27.3839,26.65739,ZAF,FS
South Africa,Free State,Kokelong Clinic,Clinic,MoH,-28.678,27.41432,ZAF,FS
South Africa,Free State,Kopano CHC,Community Health Centre,MoH,-27.983,26.728,ZAF,FS
South Africa,Free State,Kopanong Clinic,Clinic,MoH,-28.3312,28.69812,ZAF,FS
South Africa,Free State,Ladybrand Clinic,Clinic,MoH,-29.191,27.45902,ZAF,FS
South Africa,Free State,Langenhovenpark Clinic,Clinic,MoH,-29.0978,26.15587,ZAF,FS
South Africa,Free State,Lebohang Clinic,Clinic,MoH,-29.7205,27.02715,ZAF,FS
South Africa,Free State,Lephoi Clinic,Clinic,MoH,-30.4978,25.97982,ZAF,FS
South Africa,Free State,Leratong Clinic,Clinic,MoH,-27.7808,26.65683,ZAF,FS
South Africa,Free State,Leratswana Clinic,Clinic,MoH,-28.0277,27.84397,ZAF,FS
South Africa,Free State,Lesedi CHC,Community Health Centre,MoH,-27.6409,27.19232,ZAF,FS
South Africa,Free State,Lesedi Clinic,Clinic,MoH,-28.2479,29.10542,ZAF,FS
South Africa,Free State,Leseding Clinic,Clinic,MoH,-27.8815,27.90737,ZAF,FS
South Africa,Free State,Lindley Clinic,Clinic,MoH,-27.8813,27.91588,ZAF,FS
South Africa,Free State,Lourierpark Clinic,Clinic,MoH,-29.1778,26.17435,ZAF,FS
South Africa,Free State,Luckhoff Clinic,Clinic,MoH,-29.7499,24.78632,ZAF,FS
South Africa,Free State,Lusaka Clinic,Clinic,MoH,-28.4166,26.69797,ZAF,FS
South Africa,Free State,Mafane Clinic,Clinic,MoH,-29.1989,26.81338,ZAF,FS
South Africa,Free State,Mafube Hospital,District Hospital,MoH,-27.2788,28.50023,ZAF,FS
South Africa,Free State,Ma-haig Clinic,Clinic,MoH,-28.5193,28.80137,ZAF,FS
South Africa,Free State,Makeneng Clinic,Clinic,MoH,-28.6144,28.82157,ZAF,FS
South Africa,Free State,Makhalaneng Clinic,Clinic,MoH,-28.5508,28.79135,ZAF,FS
South Africa,Free State,Makoane Clinic,Clinic,MoH,-28.5346,28.8882,ZAF,FS
South Africa,Free State,Malesaona Clinic,Clinic,MoH,-28.5585,28.72104,ZAF,FS
South Africa,Free State,Maletsatsi Mabaso Clinic,Clinic,MoH,-29.2547,26.73198,ZAF,FS
South Africa,Free State,Mamello CHC,Community Health Centre,MoH,-28.6668,27.42652,ZAF,FS
South Africa,Free State,Mamello Clinic,Clinic,MoH,-30.0341,25.78073,ZAF,FS
South Africa,Free State,Manyatseng Clinic,Clinic,MoH,-29.1724,27.4656,ZAF,FS
South Africa,Free State,Marakong Clinic,Clinic,MoH,-28.5652,28.84707,ZAF,FS
South Africa,Free State,Marantha Clinic,Clinic,MoH,-28.6907,26.46281,ZAF,FS
South Africa,Free State,Masebabatso Clinic,Clinic,MoH,-28.9043,27.88332,ZAF,FS
South Africa,Free State,Masilo Clinic,Clinic,MoH,-28.4098,26.70712,ZAF,FS
South Africa,Free State,Matjhabeng Clinic,Clinic,MoH,-27.9673,26.79838,ZAF,FS
South Africa,Free State,Matlakeng Clinic,Clinic,MoH,-30.296,27.09437,ZAF,FS
South Africa,Free State,Matlakeng Hospital,District Hospital,MoH,-30.296773,27.100411,ZAF,FS
South Africa,Free State,Matsieng Clinic,Clinic,MoH,-28.6015,28.80095,ZAF,FS
South Africa,Free State,Matwabeng Clinic,Clinic,MoH,-28.3443,27.6287,ZAF,FS
South Africa,Free State,Mauersnek Clinic,Clinic,MoH,-29.1903,27.43953,ZAF,FS
South Africa,Free State,MCDC Clinic,Clinic,MoH,-29.1753,26.21987,ZAF,FS
South Africa,Free State,Meloding Clinic,Clinic,MoH,-28.1299,26.89767,ZAF,FS
South Africa,Free State,Memel Clinic,Clinic,MoH,-27.6778,29.564244,ZAF,FS
South Africa,Free State,Meqheleng Clinic,Clinic,MoH,-28.8898,27.87712,ZAF,FS
South Africa,Free State,Metsimaholo Clinic,Clinic,MoH,-26.9791,28.21113,ZAF,FS
South Africa,Free State,Mmabana Clinic,Clinic,MoH,-29.1507,26.24172,ZAF,FS
South Africa,Free State,Mmamahabane Clinic,Clinic,MoH,-28.0917,27.14768,ZAF,FS
South Africa,Free State,Mofumahadi Manapo Mopeli Hospital,Regional Hospital,MoH,-28.537,28.80507,ZAF,FS
South Africa,Free State,Mohau Hospital,District Hospital,MoH,-27.8323,25.91538,ZAF,FS
South Africa,Free State,Mokwena Clinic,Clinic,MoH,-29.1939,26.84069,ZAF,FS
South Africa,Free State,Molefi Tau Clinic,Clinic,MoH,-29.2109,26.71927,ZAF,FS
South Africa,Free State,Monontsha Clinic,Clinic,MoH,-28.5656,28.7449,ZAF,FS
South Africa,Free State,Monument Clinic,Clinic,MoH,-29.1327,26.21882,ZAF,FS
South Africa,Free State,Mphatlalatsane Clinic,Clinic,MoH,-28.5093,28.83678,ZAF,FS
South Africa,Free State,Mphohadi Clinic,Clinic,MoH,-28.1977,28.32575,ZAF,FS
South Africa,Free State,MUCPP CHC,Community Health Centre,MoH,-29.1792,26.24293,ZAF,FS
South Africa,Free State,Nala Hospital,District Hospital,MoH,-27.3946,26.61783,ZAF,FS
South Africa,Free State,Namahali Clinic,Clinic,MoH,-28.5836,28.82963,ZAF,FS
South Africa,Free State,National District Hospital,District Hospital,MoH,-29.127,26.2064,ZAF,FS
South Africa,Free State,National District Hospital Gateway Clinic,Clinic,MoH,-29.1281,26.20703,ZAF,FS
South Africa,Free State,Nelson Mandela Clinic,Clinic,MoH,-29.731,25.94157,ZAF,FS
South Africa,Free State,Nketoana Hospital,District Hospital,MoH,-27.8028,28.41893,ZAF,FS
South Africa,Free State,Noorderbloem Clinic,Clinic,MoH,-29.15,26.25,ZAF,FS
South Africa,Free State,Nothnagel Clinic,Clinic,MoH,-28.6765,27.42015,ZAF,FS
South Africa,Free State,Nthabiseng Clinic,Clinic,MoH,-28.5908,28.78217,ZAF,FS
South Africa,Free State,Opkoms Clinic,Clinic,MoH,-29.1445,26.25227,ZAF,FS
South Africa,Free State,Oppermansgronde Clinic,Clinic,MoH,-29.4135,24.74483,ZAF,FS
South Africa,Free State,OR Tambo Clinic,Clinic,MoH,-28.1496,26.88734,ZAF,FS
South Africa,Free State,OR Tambo Senekal Clinic,Clinic,MoH,-28.325746,27.613496,ZAF,FS
South Africa,Free State,Paballong Clinic,Clinic,MoH,-28.5552,28.77695,ZAF,FS
South Africa,Free State,Parys Clinic,Clinic,MoH,-26.8993,27.45715,ZAF,FS
South Africa,Free State,Parys Hospital,District Hospital,MoH,-26.8959,27.47207,ZAF,FS
South Africa,Free State,Paul Roux Clinic,Clinic,MoH,-28.296,27.95555,ZAF,FS
South Africa,Free State,PAX CHC,Community Health Centre,MoH,-27.1989,26.94977,ZAF,FS
South Africa,Free State,Pelonomi Hospital,Provincial Tertiary Hospital,MoH,-29.1413,26.24572,ZAF,FS
South Africa,Free State,Petsana Clinic,Clinic,MoH,-27.804,28.44652,ZAF,FS
South Africa,Free State,Phahameng Bultfontein Clinic,Clinic,MoH,-28.3007,26.14848,ZAF,FS
South Africa,Free State,Phahameng Frankfort Clinic,Clinic,MoH,-27.2549,28.51312,ZAF,FS
South Africa,Free State,Phedisanang Clinic,Clinic,MoH,-27.8565,26.77053,ZAF,FS
South Africa,Free State,Phedisong Clinic,Clinic,MoH,-27.0212,28.62755,ZAF,FS
South Africa,Free State,Phekolong Cornelia Clinic,Clinic,MoH,-27.2285,28.85073,ZAF,FS
South Africa,Free State,Phekolong Hospital,District Hospital,MoH,-28.2176,28.32645,ZAF,FS
South Africa,Free State,Phekolong Reddersburg Clinic,Clinic,MoH,-29.6528,26.16647,ZAF,FS
South Africa,Free State,Phetogo Clinic,Clinic,MoH,-29.3677,26.8368,ZAF,FS
South Africa,Free State,Philani Clinic,Clinic,MoH,-27.2679,28.5048,ZAF,FS
South Africa,Free State,Philippolis Clinic,Clinic,MoH,-30.2663,25.27514,ZAF,FS
South Africa,Free State,Phomolong Ficksburg Clinic,Clinic,MoH,-28.8943,27.88183,ZAF,FS
South Africa,Free State,Phomolong Hennenman Clinic,Clinic,MoH,-28.014,27.08118,ZAF,FS
South Africa,Free State,Phumelela Hospital,District Hospital,MoH,-27.4335,29.15583,ZAF,FS
South Africa,Free State,Phuthaditjhaba Clinic,Clinic,MoH,-28.5201,28.82062,ZAF,FS
South Africa,Free State,Phuthuloha Hospital,District Hospital,MoH,-28.8813,27.87202,ZAF,FS
South Africa,Free State,Poly Clinic,Clinic,MoH,-29.133799,26.239123,ZAF,FS
South Africa,Free State,Potlako Motlohi Clinic,Clinic,MoH,-29.2716,26.72317,ZAF,FS
South Africa,Free State,Pule Sefatsa Clinic,Clinic,MoH,-29.2614,26.69123,ZAF,FS
South Africa,Free State,Qalabotjha Clinic,Clinic,MoH,-27.0204,28.62502,ZAF,FS
South Africa,Free State,Qholaqhwe Clinic,Clinic,MoH,-28.5228,28.85508,ZAF,FS
South Africa,Free State,Rainbow Clinic,Clinic,MoH,-27.5534,28.51323,ZAF,FS
South Africa,Free State,Rammulotsi Clinic,Clinic,MoH,-27.1949,26.95373,ZAF,FS
South Africa,Free State,Rearabetsoe Virginia Clinic,Clinic,MoH,-28.0624,26.86415,ZAF,FS
South Africa,Free State,Rearabetswe Clinic,Clinic,MoH,-27.6541,28.12848,ZAF,FS
South Africa,Free State,Refengkgotso Clinic,Clinic,MoH,-26.8934,28.07162,ZAF,FS
South Africa,Free State,Reitumetse Clinic,Clinic,MoH,-28.6206,28.19552,ZAF,FS
South Africa,Free State,Reitz Clinic,Clinic,MoH,-27.803,28.41965,ZAF,FS
South Africa,Free State,Relebohile Heilbron Clinic,Clinic,MoH,-27.2717,27.97537,ZAF,FS
South Africa,Free State,Relebohile Rosendal Clinic,Clinic,MoH,-28.5084,27.92272,ZAF,FS
South Africa,Free State,Relebohile Vredefort Clinic,Clinic,MoH,-27.0021,27.37608,ZAF,FS
South Africa,Free State,Rheederspark Clinic,Clinic,MoH,-27.9545,26.72002,ZAF,FS
South Africa,Free State,Riebeeckstad Clinic,Clinic,MoH,-27.9335,26.81187,ZAF,FS
South Africa,Free State,Riverside Clinic,Clinic,MoH,-28.5437,28.81295,ZAF,FS
South Africa,Free State,Sandersville Clinic,Clinic,MoH,-27.2747,27.96498,ZAF,FS
South Africa,Free State,SANDF Clinic,Clinic,MoH,-29.091,26.189458,ZAF,FS
South Africa,Free State,Sasolburg Clinic,Clinic,MoH,-26.8179,27.8277,ZAF,FS
South Africa,Free State,Schonkenville Clinic,Clinic,MoH,-26.9332,27.46278,ZAF,FS
South Africa,Free State,Seadimo Clinic,Clinic,MoH,-29.1004,26.9845,ZAF,FS
South Africa,Free State,Sediba Clinic,Clinic,MoH,-29.0289,26.94302,ZAF,FS
South Africa,Free State,Sedibeng sa Bophelo Clinic,Clinic,MoH,-27.9455,27.55407,ZAF,FS
South Africa,Free State,Seeisoville Clinic,Clinic,MoH,-27.6541,27.21023,ZAF,FS
South Africa,Free State,Sehularo Tau Clinic,Clinic,MoH,-30.2591,25.70734,ZAF,FS
South Africa,Free State,Sekamotho Mota Clinic,Clinic,MoH,-28.6487,28.85232,ZAF,FS
South Africa,Free State,Senekal Clinic,Clinic,MoH,-28.3279,27.60572,ZAF,FS
South Africa,Free State,Senekal Farms Clinic,Clinic,MoH,-28.325,27.61,ZAF,FS
South Africa,Free State,Senorita Ntlabathi Hospital,District Hospital,MoH,-29.2029,27.44807,ZAF,FS
South Africa,Free State,Sizabantu Clinic,Clinic,MoH,-27.2661,27.97763,ZAF,FS
South Africa,Free State,Soetwater Clinic,Clinic,MoH,-28.8748,27.87588,ZAF,FS
South Africa,Free State,Stoffel Coetzee Hospital,District Hospital,MoH,-30.2177,26.52442,ZAF,FS
South Africa,Free State,Tebang Clinic,Clinic,MoH,-28.526,28.87238,ZAF,FS
South Africa,Free State,Thaba Bosiu Clinic,Clinic,MoH,-28.5982,28.88368,ZAF,FS
South Africa,Free State,Thaba Nchu Clinic,Clinic,MoH,-29.218,26.84782,ZAF,FS
South Africa,Free State,Thaba Phatswa Clinic,Clinic,MoH,-29.3128,27.12485,ZAF,FS
South Africa,Free State,Thabang Clinic,Clinic,MoH,-28.6094,28.83058,ZAF,FS
South Africa,Free State,Thabong Clinic,Clinic,MoH,-27.964,26.79163,ZAF,FS
South Africa,Free State,Thambo Container Clinic,Clinic,MoH,-28.4,27.5,ZAF,FS
South Africa,Free State,Thebe Hospital,District Hospital,MoH,-28.2722,29.13805,ZAF,FS
South Africa,Free State,Thembalethu Clinic,Clinic,MoH,-30.214,26.53563,ZAF,FS
South Africa,Free State,Thusa Bophelo Clinic,Clinic,MoH,-27.8363,28.97803,ZAF,FS
South Africa,Free State,Thusanang Sasolburg Clinic,Clinic,MoH,-26.8449,27.8645,ZAF,FS
South Africa,Free State,Thusanong Hospital,District Hospital,MoH,-27.8773,26.65922,ZAF,FS
South Africa,Free State,Thusanong Kroonstad Clinic,Clinic,MoH,-27.6487,27.19015,ZAF,FS
South Africa,Free State,Thusanong Parys Clinic,Clinic,MoH,-26.9201,27.48483,ZAF,FS
South Africa,Free State,Thusong Clinic,Clinic,MoH,-29.1847,26.23462,ZAF,FS
South Africa,Free State,Tiger River Clinic,Clinic,MoH,-29.1204,26.78943,ZAF,FS
South Africa,Free State,Tina Moloi Clinic,Clinic,MoH,-28.6097,28.85632,ZAF,FS
South Africa,Free State,Tokollo Hospital,District Hospital,MoH,-27.2891,27.96168,ZAF,FS
South Africa,Free State,TS Mahloko Clinic,Clinic,MoH,-29.243,26.71661,ZAF,FS
South Africa,Free State,Tsatsi SPS Clinic,Clinic,MoH,-26.8444,27.85574,ZAF,FS
South Africa,Free State,Tseki Clinic,Clinic,MoH,-28.5858,28.77227,ZAF,FS
South Africa,Free State,Tshepo Themba Clinic,Clinic,MoH,-26.349604,28.202304,ZAF,FS
South Africa,Free State,Tshepong Kroonstad Clinic,Clinic,MoH,-27.6388,27.17403,ZAF,FS
South Africa,Free State,Tshepong Verkeerdevlei Clinic,Clinic,MoH,-28.8401,26.76212,ZAF,FS
South Africa,Free State,Tshepong Welkom Clinic,Clinic,MoH,-27.9577,26.83607,ZAF,FS
South Africa,Free State,Tshiame A Clinic,Clinic,MoH,-28.32,28.99,ZAF,FS
South Africa,Free State,Tshiame B Clinic,Clinic,MoH,-28.3243,28.99467,ZAF,FS
South Africa,Free State,Tshirela Clinic,Clinic,MoH,-28.6228,28.80455,ZAF,FS
South Africa,Free State,Tshwaraganang Dealesville Clinic,Clinic,MoH,-28.6579,25.77142,ZAF,FS
South Africa,Free State,Tshwaraganang Hertzogville Clinic,Clinic,MoH,-28.123,25.49985,ZAF,FS
South Africa,Free State,Tumahole Clinic,Clinic,MoH,-26.9162,27.46773,ZAF,FS
South Africa,Free State,Tweefontein Clinic,Clinic,MoH,-29.3701,26.92562,ZAF,FS
South Africa,Free State,Tweespruit Clinic,Clinic,MoH,-29.1875,27.02543,ZAF,FS
South Africa,Free State,Universitas C Hospital,National Central Hospital,MoH,-29.118,26.18432,ZAF,FS
South Africa,Free State,Vaal Rock Clinic,Clinic,MoH,-28.6815,26.46135,ZAF,FS
South Africa,Free State,Vaalpark Clinic,Clinic,MoH,-26.773,27.839,ZAF,FS
South Africa,Free State,Vanstadensrus Clinic,Clinic,MoH,-29.9852,27.0136,ZAF,FS
South Africa,Free State,Villiers Clinic,Clinic,MoH,-27.029,28.59788,ZAF,FS
South Africa,Free State,Virginia Clinic,Clinic,MoH,-28.1076,26.86413,ZAF,FS
South Africa,Free State,Vivian Mangwane Clinic,Clinic,MoH,-26.911463,27.490696,ZAF,FS
South Africa,Free State,Vrede Clinic,Clinic,MoH,-27.4343,29.15528,ZAF,FS
South Africa,Free State,Welkom Clinic,Clinic,MoH,-27.9854,26.7414,ZAF,FS
South Africa,Free State,Westdene Clinic,Clinic,MoH,-29.1027,26.20763,ZAF,FS
South Africa,Free State,Wilgehof Clinic,Clinic,MoH,-29.1276,26.191187,ZAF,FS
South Africa,Free State,Winburg Clinic,Clinic,MoH,-28.5186,27.01312,ZAF,FS
South Africa,Free State,Winburg Hospital,District Hospital,MoH,-28.5098,27.00802,ZAF,FS
South Africa,Free State,Winnie Mandela Botshabelo Clinic,Clinic,MoH,-29.2182,26.70333,ZAF,FS
South Africa,Free State,Winnie Mandela Rouxville Clinic,Clinic,MoH,-30.4077,26.83088,ZAF,FS
South Africa,Free State,Zamani Clinic,Clinic,MoH,-27.6687,29.56125,ZAF,FS
South Africa,Free State,Zamdela CHC,Community Health Centre,MoH,-26.8421,27.84672,ZAF,FS
South Africa,Gauteng,17 Esselen Street Clinic,Clinic,Local authority,-26.191,28.045,ZAF,GP
South Africa,Gauteng,4th Avenue Clinic,Clinic,MoH,-26.1052,28.0908,ZAF,GP
South Africa,Gauteng,80 Albert Street Clinic,Clinic,MoH,-26.2077,28.04962,ZAF,GP
South Africa,Gauteng,Adelaide Tambo Clinic,Clinic,MoH,-25.5819,28.23326,ZAF,GP
South Africa,Gauteng,Akasia Refugee Shelter Clinic,Clinic,MoH,-25.6381,28.123272,ZAF,GP
South Africa,Gauteng,Albertina Sisulu Clinic,Clinic,Local authority,-26.5769,27.84864,ZAF,GP
South Africa,Gauteng,Alberton North Clinic,Clinic,Local authority,-26.2596,28.12863,ZAF,GP
South Africa,Gauteng,Alexandra 8th Avenue Clinic,Clinic,Local authority,-26.1095,28.09588,ZAF,GP
South Africa,Gauteng,Alexandra CHC,Community Health Centre,Local authority,-26.1164,28.08844,ZAF,GP
South Africa,Gauteng,Alexandra East Bank Clinic,Clinic,Local authority,-26.1067,28.10999,ZAF,GP
South Africa,Gauteng,Alra Park Clinic,Clinic,Local authority,-26.4327,28.50831,ZAF,GP
South Africa,Gauteng,Alra Park Ext 3 Clinic,Clinic,Local authority,-26.446,28.512746,ZAF,GP
South Africa,Gauteng,Andries Raditsela Clinic,Clinic,MoH,-26.3343,28.38866,ZAF,GP
South Africa,Gauteng,Atteridgeville Clinic,Clinic,Local authority,-25.7686,28.07841,ZAF,GP
South Africa,Gauteng,Azaadville Clinic,Clinic,Local authority,-26.1709,27.75829,ZAF,GP
South Africa,Gauteng,Badirile Clinic,Clinic,Local authority,-26.1302,27.59278,ZAF,GP
South Africa,Gauteng,Bakerton Health Post,Health Post,Local authority,-26.2263,28.469107,ZAF,GP
South Africa,Gauteng,Bapsfontein Clinic,Clinic,Local authority,-26.0028,28.41353,ZAF,GP
South Africa,Gauteng,Barcelona Clinic,Clinic,Local authority,-26.1091,28.45219,ZAF,GP
South Africa,Gauteng,Barney Molokoane Clinic,Clinic,MoH,-26.4924,27.87908,ZAF,GP
South Africa,Gauteng,Bedfordview Clinic,Clinic,Local authority,-26.1793,28.13449,ZAF,GP
South Africa,Gauteng,Bekkersdal East Clinic,Clinic,Local authority,-26.2834,27.70399,ZAF,GP
South Africa,Gauteng,Bekkersdal West CHC,Community Health Centre,Local authority,-26.2861,27.6974,ZAF,GP
South Africa,Gauteng,Bellavista Clinic,Clinic,Local authority,-26.2557,28.0293,ZAF,GP
South Africa,Gauteng,Berario Clinic,Clinic,Local authority,-26.1356,27.95284,ZAF,GP
South Africa,Gauteng,Berea Clinic,Clinic,Local authority,-26.1879,28.055,ZAF,GP
South Africa,Gauteng,Bertha Gxowa Clinic,Clinic,MoH,-26.2213,28.162803,ZAF,GP
South Africa,Gauteng,Bertha Gxowa Hospital,District Hospital,MoH,-26.2197,28.16305,ZAF,GP
South Africa,Gauteng,Beverly Hills Clinic,Clinic,Local authority,-26.5424,27.82381,ZAF,GP
South Africa,Gauteng,Bezvalley Clinic,Clinic,Local authority,-26.1866,28.08827,ZAF,GP
